code,name,district,region,percentage_pass,national_rank,candidates_last,number_pass_last,percentage_pass_last,national_rank_last,school_type,ownership,ward,number_enrolled,number_teaching_staff,number_non_teaching_staff_by_school,number_non_teaching_staff_by_govt,candidates,number_pass,percentage_pass_change,longitude,latitude,Location
PS0101-001,Bangata Primary School,Arusha,Arusha,29.09090909,11728,80,2,2.5,12839,primary,government,Bangata,394,16,,,55,16,26.59090909,36.7439995392,-3.3384210188,"(-3.3384210188, 36.7439995392)"
PS0101-003,Bwawani Primary School,Arusha,Arusha,11.11111111,13835,40,4,10,11871,primary,government,Bwawani,311,8,,,36,4,1.111111111,36.8447831409,-3.6078946514,"(-3.6078946514, 36.8447831409)"
PS0101-005,Ekenywa Primary School,Arusha,Arusha,53.33333333,7169,63,8,12.6984127,9105,primary,government,Olturumet,474,16,,,60,32,40.63492063,36.6202286526,-3.2957160871,"(-3.2957160871, 36.6202286526)"
PS0101-006,Emaoi Primary School,Arusha,Arusha,59.61538462,5106,80,46,57.5,2369,primary,government,Olmotonyi,508,29,,,104,62,2.115384615,36.6489692751,-3.308792324,"(-3.308792324, 36.6489692751)"
PS0101-007,Endonyoesoiye Primary School,Arusha,Arusha,21.62162162,12171,133,11,8.270676692,10237,primary,,,,,,,74,16,13.35094493,36.6571301415,-3.3341402365,"(-3.3341402365, 36.6571301415)"
PS0101-008,Engalaoni Primary School,Arusha,Arusha,30.50847458,10646,84,12,14.28571429,12459,primary,government,Mwandeti,903,10,,,59,18,16.22276029,,,
PS0101-009,Engorika Primary School,Arusha,Arusha,32.09876543,9305,93,14,15.05376344,7847,primary,government,Olkokola,646,11,,,81,26,17.04500199,36.643426357,-3.2406313559,"(-3.2406313559, 36.643426357)"
PS0101-010,Engutukoiti Primary School,Arusha,Arusha,45.45454545,8679,28,1,3.571428571,14604,primary,,,,,,,11,5,41.88311688,,,
PS0101-011,Enyuata Primary School,Arusha,Arusha,76.57657658,2972,93,51,54.83870968,2428,primary,government,Kiranyi,866,28,,,111,85,21.7378669,,,
PS0101-012,Green Acres Primary School,Arusha,Arusha,100,99,74,73,98.64864865,74,primary,non-government,Sokon Ii,651,39,32,,82,82,1.351351351,36.7082431953,-3.3624380031,"(-3.3624380031, 36.7082431953)"
PS0101-013,Ilboru Primary School,Arusha,Arusha,88.32116788,2261,150,118,78.66666667,1207,primary,government,Moivo,1172,38,,,137,121,9.654501217,36.6856560687,-3.3475685556,"(-3.3475685556, 36.6856560687)"
PS0101-014,Ilkerini Primary School,Arusha,Arusha,83.67346939,3266,74,4,5.405405405,9588,primary,,,,,,,49,41,78.26806398,36.5263370738,-3.3570029006,"(-3.3570029006, 36.5263370738)"
PS0101-015,Ilkiding'a Primary School,Arusha,Arusha,65.26315789,4555,143,25,17.48251748,7500,primary,government,Ilkiding'a,1206,32,,,95,62,47.78064041,36.6851488538,-3.3182789756,"(-3.3182789756, 36.6851488538)"
PS0101-016,Ilkisongo Primary School,Arusha,Arusha,18.36734694,13267,55,2,3.636363636,,primary,government,Ilkiding'a,519,12,,,49,9,14.7309833,,,
PS0101-017,Ilkiurei Primary School,Arusha,Arusha,57.06521739,6438,156,38,24.35897436,6534,primary,government,Kiranyi,1024,41,,,184,105,32.70624303,36.6741259624,-3.3547637606,"(-3.3547637606, 36.6741259624)"
PS0101-018,Ilkuroti Primary School,Arusha,Arusha,28,10642,98,17,17.34693878,,primary,,,,,,,100,28,10.65306122,36.6266541282,-3.2133115364,"(-3.2133115364, 36.6266541282)"
PS0101-019,Imbibia Primary School,Arusha,Arusha,23.14814815,13347,96,9,9.375,12067,primary,government,Mwandeti,489,12,,,108,25,13.77314815,36.5651309,-3.2672365301,"(-3.2672365301, 36.5651309)"
PS0101-020,Jk Nyerere Primary School,Arusha,Arusha,53.125,6329,83,16,19.27710843,,primary,,,,,,,64,34,33.84789157,36.651497808,-3.3425062898,"(-3.3425062898, 36.651497808)"
PS0101-022,Kambi Ya Maziwa Primary School,Arusha,Arusha,84.61538462,2631,143,61,42.65734266,3642,primary,,,,,,,143,121,41.95804196,,,
PS0101-023,Kigongoni Primary School,Arusha,Arusha,31.42857143,11258,47,4,8.510638298,10829,primary,government,Bwawani,264,8,,,35,11,22.91793313,36.7796916859,-3.5369710653,"(-3.5369710653, 36.7796916859)"
PS0101-024,Kilimanjaro Primary School,Arusha,Arusha,100,273,77,77,100,132,primary,non-government,Olorien,517,27,38,,86,86,0,,,
PS0101-025,Kimnyaki Primary School,Arusha,Arusha,30,11932,140,20,14.28571429,,primary,,,,,,,120,36,15.71428571,36.6601239272,-3.311792792,"(-3.311792792, 36.6601239272)"
PS0101-026,Kioga Primary School,Arusha,Arusha,31.64556962,10265,150,5,3.333333333,12450,primary,government,Ilkiding'a,1074,26,,,79,25,28.31223629,36.6950003943,-3.3171359568,"(-3.3171359568, 36.6950003943)"
PS0101-027,Kiranyi Primary School,Arusha,Arusha,67.39130435,4535,85,33,38.82352941,3885,primary,government,Kiranyi,757,33,,,92,62,28.56777494,,,
PS0101-028,Kiserian Primary School,Arusha,Arusha,47.36842105,6944,86,28,32.55813953,5563,primary,,,,,,,76,36,14.81028152,36.7401704067,-3.4495494516,"(-3.4495494516, 36.7401704067)"
PS0101-029,Kisongo Primary School,Arusha,Arusha,50.66666667,7422,97,49,50.51546392,2565,primary,government,Kisongo,497,17,,,75,38,0.151202749,36.6951176145,-3.3170096753,"(-3.3170096753, 36.6951176145)"
PS0101-030,Lamoloki Primary School,Arusha,Arusha,12.76595745,13829,60,1,1.666666667,14238,primary,government,Bwawani,454,8,,,47,6,11.09929078,36.8328811049,-3.5801752502,"(-3.5801752502, 36.8328811049)"
PS0101-031,Laroi Primary School,Arusha,Arusha,46.66666667,6131,60,25,41.66666667,3408,primary,government,Mateves,398,13,,,45,21,5,36.6269540573,-3.4955174141,"(-3.4955174141, 36.6269540573)"
PS0101-032,Lemanyata Primary School,Arusha,Arusha,55.85585586,5925,115,45,39.13043478,4024,primary,government,Olkokola,768,13,,,111,62,16.72542107,36.6191257382,-3.2677099869,"(-3.2677099869, 36.6191257382)"
PS0101-033,Leminyor Primary School,Arusha,Arusha,27.39726027,8797,78,16,20.51282051,8896,primary,government,O/sambu,542,13,,,73,20,6.884439761,,,
PS0101-034,Lemugur Primary School,Arusha,Arusha,37.09677419,9616,63,8,12.6984127,10606,primary,government,Mateves,468,11,,,62,23,24.3983615,36.5614049128,-3.4319597623,"(-3.4319597623, 36.5614049128)"
PS0101-035,Lengijave Primary School,Arusha,Arusha,44.89795918,8803,81,17,20.98765432,9005,primary,government,Olkokola,538,9,,,49,22,23.91030486,36.598627726,-5.0300858942,"(-5.0300858942, 36.598627726)"
PS0101-036,Lesiraa Primary School,Arusha,Arusha,70.21276596,2700,60,23,38.33333333,3497,primary,government,Kisongo,367,11,,,47,33,31.87943262,36.5053778063,-3.3973783018,"(-3.3973783018, 36.5053778063)"
PS0101-037,Likamba Primary School,Arusha,Arusha,16.66666667,14002,100,11,11,9119,primary,government,Musa,483,11,,,60,10,5.666666667,36.5723728236,-3.3145546555,"(-3.3145546555, 36.5723728236)"
PS0101-038,Loovilukuny Primary School,Arusha,Arusha,45.90163934,9058,58,7,12.06896552,10141,primary,government,Kisongo,433,15,,,61,28,33.83267383,36.5444659616,-3.4116063222,"(-3.4116063222, 36.5444659616)"
PS0101-039,Loruvani Primary School,Arusha,Arusha,52.20125786,6556,172,32,18.60465116,7491,primary,government,Olturoto,938,36,,,159,83,33.5966067,,,
PS0101-040,Losikito Primary School,Arusha,Arusha,16.10738255,13815,136,7,5.147058824,13685,primary,government,Mwandeti,784,15,,,149,24,10.96032373,36.5779942005,-3.299581936,"(-3.299581936, 36.5779942005)"
PS0101-041,Losinoni Primary School,Arusha,Arusha,27.95698925,12047,95,25,26.31578947,5659,primary,,,,,,,93,26,1.641199774,,,
PS0101-043,Majimoto Primary School,Arusha,Arusha,9.803921569,13783,57,2,3.50877193,12543,primary,government,Nduruma,398,8,,,51,5,6.295149639,36.8527009035,-3.4991548423,"(-3.4991548423, 36.8527009035)"
PS0101-044,Manyire Primary School,Arusha,Arusha,35.41666667,10042,66,2,3.03030303,10209,primary,government,Mlangarini,515,13,,,48,17,32.38636364,36.806272079,-3.4543695823,"(-3.4543695823, 36.806272079)"
PS0101-045,Marurani Primary School,Arusha,Arusha,54.34782609,6007,50,1,2,13048,primary,government,Nduruma,348,8,,,46,25,52.34782609,,,
PS0101-047,Matim Primary School,Arusha,Arusha,51.57894737,6242,95,29,30.52631579,6793,primary,government,Olkokola,735,16,,,95,49,21.05263158,36.6189124509,-3.2666247746,"(-3.2666247746, 36.6189124509)"
PS0101-048,Mbuyuni Primary School,Arusha,Arusha,36.58536585,10011,59,6,10.16949153,12843,primary,government,Oljoro,404,9,,,41,15,26.41587433,36.6558436619,-3.5656004369,"(-3.5656004369, 36.6558436619)"
PS0101-049,Midawe Primary School,Arusha,Arusha,78.68852459,3267,73,4,5.479452055,10212,primary,government,Bangata,530,14,,,61,48,73.20907254,36.7486173116,-3.332989554,"(-3.332989554, 36.7486173116)"
PS0101-050,Mirongoine Primary School,Arusha,Arusha,84.74576271,2341,58,3,5.172413793,14116,primary,government,Oljoro,384,11,,,59,50,79.57334892,36.6060395707,-3.4055342033,"(-3.4055342033, 36.6060395707)"
PS0101-051,Mlangarini Primary School,Arusha,Arusha,25.67567568,11510,67,10,14.92537313,7486,primary,government,Mlangarini,578,17,,,74,19,10.75030254,36.7870003384,-3.4472733324,"(-3.4472733324, 36.7870003384)"
PS0101-052,Moivo Primary School,Arusha,Arusha,62.62626263,4939,122,37,30.32786885,4858,primary,government,Moivo,911,28,,,99,62,32.29839377,36.7039270909,-3.3502512918,"(-3.3502512918, 36.7039270909)"
PS0101-054,Mringa Primary School,Arusha,Arusha,63.41463415,5252,189,52,27.51322751,5538,primary,government,Olorieni,1138,42,,,164,104,35.90140663,36.6398173739,-3.3336105875,"(-3.3336105875, 36.6398173739)"
PS0101-055,Mungushi Primary School,Arusha,Arusha,37.5,9123,79,3,3.797468354,13594,primary,government,Bwawani,613,8,,,48,18,33.70253165,36.834140888,-3.5299853557,"(-3.5299853557, 36.834140888)"
PS0101-057,Musa Primary School,Arusha,Arusha,37.5,9608,60,41,68.33333333,1695,primary,government,Musa,489,8,,,48,18,-30.83333333,36.5218648484,-3.3256729759,"(-3.3256729759, 36.5218648484)"
PS0101-058,Muungano Primary School,Arusha,Arusha,40,9471,58,7,12.06896552,9398,primary,government,Mlangarini,370,9,,,55,22,27.93103448,36.7352344135,-3.4824339268,"(-3.4824339268, 36.7352344135)"
PS0101-059,Mwandeti Primary School,Arusha,Arusha,7.96460177,14981,110,4,3.636363636,,primary,,,,,,,113,9,4.328238134,36.6004296211,-3.2747429112,"(-3.2747429112, 36.6004296211)"
PS0101-060,Mzimuni Primary School,Arusha,Arusha,30.18867925,9751,62,2,3.225806452,12723,primary,government,Nduruma,440,10,,,53,16,26.96287279,36.8059029407,-3.5050670001,"(-3.5050670001, 36.8059029407)"
PS0101-061,Nambere Primary School,Arusha,Arusha,84.375,2736,82,41,50,2431,primary,government,Sokon  Ii,519,26,,,96,81,34.375,36.7228106814,-3.3565692072,"(-3.3565692072, 36.7228106814)"
PS0101-062,Natema Primary School,Arusha,Arusha,48.80952381,8534,85,18,21.17647059,7142,primary,government,Kiranyi,585,19,,,84,41,27.63305322,36.6726562975,-3.329539931,"(-3.329539931, 36.6726562975)"
PS0101-063,Naurei Primary School,Arusha,Arusha,67.6300578,4116,174,72,41.37931034,,primary,government,Sokon  Ii,1155,38,,,173,117,26.25074746,36.7155668631,-3.3578087765,"(-3.3578087765, 36.7155668631)"
PS0101-064,Nduruma Primary School,Arusha,Arusha,40.42553191,8330,52,27,51.92307692,3209,primary,government,Nduruma,434,12,,,47,19,-11.49754501,36.7931084143,-3.4746524746,"(-3.4746524746, 36.7931084143)"
PS0101-065,Nengungu Primary School,Arusha,Arusha,68,4362,59,21,35.59322034,5393,primary,government,Musa,383,16,,,50,34,32.40677966,,,
PS0101-066,Ngaramtoni Primary School,Arusha,Arusha,85.71428571,2625,77,43,55.84415584,1968,primary,government,Olturumet,524,24,,,70,60,29.87012987,36.6373455556,-3.3102380016,"(-3.3102380016, 36.6373455556)"
PS0101-067,Ng'iresi Primary School,Arusha,Arusha,60.97560976,5622,123,25,20.32520325,6323,primary,government,Sokon  Ii,812,26,,,82,50,40.6504065,36.7336217529,-3.3334702931,"(-3.3334702931, 36.7336217529)"
PS0101-068,Nuru Primary School,Arusha,Arusha,100,754,20,20,100,315,primary,non-government,Moivo,51,6,4,,9,9,0,36.6778506078,-3.3505873218,"(-3.3505873218, 36.6778506078)"
PS0101-071,Olbak Primary School,Arusha,Arusha,34.61538462,11034,72,21,29.16666667,5812,primary,,,,,,,78,27,5.448717949,,,
PS0101-072,Olchoki Primary School,Arusha,Arusha,50.28248588,6881,207,69,33.33333333,4937,primary,government,Kiranyi,1439,39,,,177,89,16.94915254,36.6714183126,-3.3396341557,"(-3.3396341557, 36.6714183126)"
PS0101-073,Olchorovus Primary School,Arusha,Arusha,44.64285714,6876,66,12,18.18181818,10070,primary,government,Musa,702,9,,,56,25,26.46103896,36.5278127235,-3.298987965,"(-3.298987965, 36.5278127235)"
PS0101-074,Oldadai Primary School,Arusha,Arusha,61.03896104,4964,137,55,40.1459854,4395,primary,government,Sokon  Ii,1216,46,,,154,94,20.89297564,,,
PS0101-075,Oldendereti Primary School,Arusha,Arusha,100,1385,30,1,3.333333333,10895,primary,,,,,,,21,21,96.66666667,36.7784257068,-3.5054991775,"(-3.5054991775, 36.7784257068)"
PS0101-076,Oldonyosambu Primary School,Arusha,Arusha,47.14285714,6751,150,6,4,11950,primary,,,,,,,70,33,43.14285714,,,
PS0101-077,Oldonyosapuk Primary School,Arusha,Arusha,35.10638298,9503,84,21,25,6893,primary,,,,,,,94,33,10.10638298,36.710182994,-3.3327830583,"(-3.3327830583, 36.710182994)"
PS0101-078,Oldonyowas Primary School,Arusha,Arusha,55.40540541,6652,93,47,50.53763441,2924,primary,government,O/sambu,607,11,,,74,41,4.867770997,,,
PS0101-079,Olgilai Primary School,Arusha,Arusha,67.27272727,5906,117,18,15.38461538,8700,primary,government,Olturoto,787,28,,,110,74,51.88811189,36.722529921,-3.3418245445,"(-3.3418245445, 36.722529921)"
PS0101-080,Oljoro Primary School,Arusha,Arusha,15.68627451,13427,52,6,11.53846154,8721,primary,government,Oljoro,360,8,,,51,8,4.147812971,36.6879003882,-3.5900435446,"(-3.5900435446, 36.6879003882)"
PS0101-082,Olkokola Primary School,Arusha,Arusha,27.45098039,9684,45,5,11.11111111,8731,primary,government,Olkokola,466,14,,,51,14,16.33986928,,,
PS0101-083,Olmotonyi Primary School,Arusha,Arusha,67.27272727,4452,67,30,44.7761194,3665,primary,government,Olmotonyi,447,16,,,55,37,22.49660787,36.6570602482,-3.2911755838,"(-3.2911755838, 36.6570602482)"
PS0101-084,Olmringiringa Primary School,Arusha,Arusha,33.96226415,10531,128,22,17.1875,8807,primary,government,Kimnyak,950,19,,,106,36,16.77476415,36.6747913797,-3.316555145,"(-3.316555145, 36.6747913797)"
PS0101-085,Olorien Valley Primary School,Arusha,Arusha,100,264,18,17,94.44444444,240,primary,non-government,Olorien,298,13,15,,35,35,5.555555556,,,
PS0101-086,Olokii Primary School,Arusha,Arusha,47.5,8107,49,13,26.53061224,6242,primary,government,Bwawani,169,8,,,40,19,20.96938776,36.8114529366,-3.5896979022,"(-3.5896979022, 36.8114529366)"
PS0101-087,Olosiva Primary School,Arusha,Arusha,87.5,3351,89,24,26.96629213,5167,primary,government,Olorieni,887,28,,,88,77,60.53370787,,,
PS0101-088,Olturoto Primary School,Arusha,Arusha,69.76744186,4833,113,11,9.734513274,9778,primary,government,Olturoto,619,31,,,86,60,60.03292859,,,
PS0101-089,Olturumet Primary School,Arusha,Arusha,26.47058824,10410,84,7,8.333333333,9379,primary,government,Olturumet,681,12,,,68,18,18.1372549,36.6089497184,-3.3148338431,"(-3.3148338431, 36.6089497184)"
PS0101-090,Sambasha Primary School,Arusha,Arusha,30,10992,62,6,9.677419355,8415,primary,government,Sambasha,662,13,,,120,36,20.32258065,36.6696934405,-3.296502471,"(-3.296502471, 36.6696934405)"
PS0101-091,Sasi Primary School,Arusha,Arusha,68,5515,83,14,16.86746988,7699,primary,government,Bangata,429,19,,,50,34,51.13253012,36.7451077913,-3.3651096432,"(-3.3651096432, 36.7451077913)"
PS0101-092,Sekei Primary School,Arusha,Arusha,74.53416149,3491,148,87,58.78378378,2177,primary,government,Sokon  Ii,982,32,,,161,120,15.75037771,36.7163420617,-3.3571054896,"(-3.3571054896, 36.7163420617)"
PS0101-093,Seliani Primary School,Arusha,Arusha,38.03680982,10949,179,24,13.40782123,9613,primary,,,,,,,163,62,24.62898859,,,
PS0101-095,Siti Mwinyi Primary School,Arusha,Arusha,100,418,18,18,100,,primary,,,,,,,13,13,0,,,
PS0101-096,Sos Hermann Primary School,Arusha,Arusha,91.42857143,1307,31,27,87.09677419,,primary,,,,,,,35,32,4.331797235,,,
PS0101-098,St Magret Primary School,Arusha,Arusha,100,5,54,54,100,35,primary,,,,,,,49,49,0,,,
PS0101-101,Themi Ya Simba Primary School,Arusha,Arusha,8,14959,33,1,3.03030303,13799,primary,,,,,,,50,4,4.96969697,36.7877950732,-3.5872089382,"(-3.5872089382, 36.7877950732)"
PS0101-102,Timbolo Primary School,Arusha,Arusha,24.41860465,12102,108,13,12.03703704,9750,primary,government,Sambasha,778,16,,,86,21,12.38156761,36.6696003236,-3.297867221,"(-3.297867221, 36.6696003236)"
PS0101-103,Trust St Patrick Primary School,Arusha,Arusha,100,174,93,93,100,,primary,,,,,,,89,89,0,,,
PS0101-104,Umoja Primary School,Arusha,Arusha,18.75,13375,55,3,5.454545455,12738,primary,government,Nduruma,444,10,,,48,9,13.29545455,36.853995637,-3.5153134242,"(-3.5153134242, 36.853995637)"
PS0101-106,Margreth Englands Burks Primary School,Arusha,Arusha,100,653,26,24,92.30769231,702,primary,,,,,,,24,24,7.692307692,,,
PS0101-107,New Life Primary School,Arusha,Arusha,97.95918367,883,61,61,100,331,primary,non-government,Olorien,437,26,16,,49,48,-2.040816327,,,
PS0101-108,Olomitu Primary School,Arusha,Arusha,52.23880597,7137,86,31,36.04651163,4333,primary,government,Mlangarini,516,22,,,67,35,16.19229434,36.7578425229,-3.41310573,"(-3.41310573, 36.7578425229)"
PS0101-109,Yakini Primary School,Arusha,Arusha,100,106,31,31,100,510,primary,non-government,Kisongo,331,19,8,,32,32,0,,,
PS0101-112,Sotwa Wilson Primary School,Arusha,Arusha,85.71428571,3450,7,7,100,669,primary,,,,,,,7,6,-14.28571429,36.6921386812,-3.3486596183,"(-3.3486596183, 36.6921386812)"
PS0101-113,Wilkabaa Primary School,Arusha,Arusha,100,485,23,23,100,287,primary,non-government,Sokon Ii,237,15,3,,25,25,0,36.7191504398,-3.3601404161,"(-3.3601404161, 36.7191504398)"
PS0101-114,Albehije Primary School,Arusha,Arusha,85.71428571,1403,7,7,100,247,primary,non-government,Kiranyi,120,12,6,,7,6,-14.28571429,,,
PS0101-115,New Vision Primary School,Arusha,Arusha,100,466,10,10,100,,primary,non-government,Olturumet,210,13,16,,22,22,0,,,
PS0101-116,Assalaf Islamic Primary School,Arusha,Arusha,100,463,16,16,100,405,primary,,,,,,,9,9,0,,,
PS0101-117,Enjoro Primary School,Arusha,Arusha,35.41666667,8663,40,26,65,1961,primary,government,Mateves,446,9,,,48,17,-29.58333333,36.5982085806,-3.454650875,"(-3.454650875, 36.5982085806)"
PS0101-118,Likamba Integrity Primary School,Arusha,Arusha,100,1185,15,15,100,528,primary,,,,,,,20,20,0,,,
PS0101-119,Mshikamano Primary School,Arusha,Arusha,23.25581395,11481,66,3,4.545454546,11761,primary,government,Nduruma,377,7,,,43,10,18.71035941,36.8132202487,-3.4805124014,"(-3.4805124014, 36.8132202487)"
PS0101-120,St Paulo Primary School,Arusha,Arusha,100,663,21,20,95.23809524,,primary,,,,,,,24,24,4.761904762,,,
PS0101-121,Goodwill Primary School,Arusha,Arusha,100,1470,3,3,100,369,primary,non-government,Moivo,173,9,3,,7,7,0,,,
PS0102-001,Arusha Primary School,Arusha Municipal,Arusha,99.00990099,841,103,90,87.37864078,622,primary,,,,,,,101,100,11.63126021,,,
PS0102-002,Baraa Primary School,Arusha Municipal,Arusha,76.72955975,3377,221,62,28.05429864,6449,primary,government,Baraa,1387,34,3,,159,122,48.67526111,36.7383232014,-3.3894022991,"(-3.3894022991, 36.7383232014)"
PS0102-003,Burka Primary School,Arusha Municipal,Arusha,98.94736842,720,126,113,89.68253968,628,primary,government,Elerai,1398,42,3,,95,94,9.264828739,36.6606911877,-3.3647654021,"(-3.3647654021, 36.6606911877)"
PS0102-004,Engosengiu Primary School,Arusha Municipal,Arusha,85.32110092,1878,281,81,28.82562278,5456,primary,government,Sokon I,1860,35,,,218,186,56.49547814,36.6873273175,-3.4166533576,"(-3.4166533576, 36.6873273175)"
PS0102-005,Kaloleni Primary School,Arusha Municipal,Arusha,87.59689922,1574,170,118,69.41176471,1271,primary,government,Kaloleni,889,49,4,,129,113,18.18513452,36.6903404476,-3.3675030393,"(-3.3675030393, 36.6903404476)"
PS0102-006,Kimandolu Primary School,Arusha Municipal,Arusha,79.55801105,2555,174,89,51.14942529,2623,primary,government,Kimandolu,1274,38,2,,181,144,28.40858576,36.7167098284,-3.3730073909,"(-3.3730073909, 36.7167098284)"
PS0102-007,Kijenge Primary School,Arusha Municipal,Arusha,93.40101523,1212,176,137,77.84090909,1029,primary,government,Sekei,1391,36,3,,197,184,15.56010614,36.7054555325,-3.3774735647,"(-3.3774735647, 36.7054555325)"
PS0102-008,Lemara Primary School,Arusha Municipal,Arusha,70.28301887,3793,145,81,55.86206897,2228,primary,government,Lemara,1201,31,2,,212,149,14.4209499,36.6960157758,-3.4019667598,"(-3.4019667598, 36.6960157758)"
PS0102-009,Levolosi Primary School,Arusha Municipal,Arusha,79.76190476,2332,167,96,57.48502994,1872,primary,government,Levolosi,1034,38,2,,168,134,22.27687482,36.6809346726,-3.3663054681,"(-3.3663054681, 36.6809346726)"
PS0102-010,Meru Primary School,Arusha Municipal,Arusha,94.44444444,1080,108,92,85.18518519,699,primary,government,Kaloleni,976,43,4,,108,102,9.259259259,36.7134390755,-3.44394395,"(-3.44394395, 36.7134390755)"
PS0102-011,Mkonoo Primary School,Arusha Municipal,Arusha,71.13402062,3430,118,64,54.23728814,2279,primary,government,Terrat,862,21,2,,97,69,16.89673248,,,
PS0102-012,Nadosoito Primary School,Arusha Municipal,Arusha,82.20338983,2503,147,33,22.44897959,8187,primary,government,Terrat,593,20,1,,118,97,59.75441024,36.680218,-3.495651,"(-3.495651, 36.680218)"
PS0102-013,Naura Primary School,Arusha Municipal,Arusha,94.25287356,1069,78,59,75.64102564,1160,primary,government,Sekei,662,26,2,,87,82,18.61184792,,,
PS0102-014,Narenaro Primary School,Arusha Municipal,Arusha,75.65217391,2940,276,171,61.95652174,,primary,,,,,,,230,174,13.69565217,36.6780592483,-3.376459075,"(-3.376459075, 36.6780592483)"
PS0102-015,Njiro-hill Primary School,Arusha Municipal,Arusha,92.5,1200,87,65,74.71264368,847,primary,,,,,,,80,74,17.78735632,,,
PS0102-016,Oloirien Primary School,Arusha Municipal,Arusha,80,2921,153,83,54.24836601,2071,primary,government,Oloirien,1063,29,2,,135,108,25.75163399,36.7122560091,-3.3812321343,"(-3.3812321343, 36.7122560091)"
PS0102-017,Sanawari Primary School,Arusha Municipal,Arusha,82.73809524,2257,149,92,61.74496644,1491,primary,government,Sekei,1110,37,1,,168,139,20.9931288,36.6944328812,-3.3599465581,"(-3.3599465581, 36.6944328812)"
PS0102-018,Sinon Primary School,Arusha Municipal,Arusha,86.97183099,2168,357,244,68.34733894,1451,primary,government,Sokon I,2751,55,2,,284,247,18.62449205,,,
PS0102-019,Sombetini Primary School,Arusha Municipal,Arusha,85.25641026,2134,271,159,58.67158672,1638,primary,government,Sombetini,1772,52,3,,312,266,26.58482354,36.6671066793,-3.3901908635,"(-3.3901908635, 36.6671066793)"
PS0102-020,Themi Primary School,Arusha Municipal,Arusha,94.81481481,1098,167,112,67.06586826,1575,primary,government,Themi,1515,41,2,,135,128,27.74894655,36.6934119996,-3.3809432902,"(-3.3809432902, 36.6934119996)"
PS0102-021,Uhuru Primary School,Arusha Municipal,Arusha,99.06976744,360,209,198,94.73684211,391,primary,government,Kati,1558,45,5,,215,213,4.332925337,,,
PS0102-022,Daraja- II Pr. School,Arusha Municipal,Arusha,85.06224066,2126,306,157,51.30718954,,primary,,,,,,,241,205,33.75505112,,,
PS0102-023,Unga-limited Primary School,Arusha Municipal,Arusha,86.34361233,1791,247,152,61.53846154,1557,primary,,,,,,,227,196,24.8051508,,,
PS0102-024,Jaffery Primary School,Arusha Municipal,Arusha,100,632,50,50,100,352,primary,,,,,,,51,51,0,,,
PS0102-026,Maromboso-baptist Primary School,Arusha Municipal,Arusha,100,1019,40,34,85,644,primary,,,,,,,43,43,15,,,
PS0102-028,Arusha Modern Primary School,Arusha Municipal,Arusha,100,239,27,27,100,101,primary,non-government,Elerai,336,15,8,,23,23,0,,,
PS0102-029,Arusha Intergrated Primary School,Arusha Municipal,Arusha,100,747,33,31,93.93939394,814,primary,,,,,,,28,28,6.060606061,36.6580686255,-3.3631410232,"(-3.3631410232, 36.6580686255)"
PS0102-030,Suye Primary School,Arusha Municipal,Arusha,90.57971014,2131,135,109,80.74074074,1133,primary,government,Baraa,1056,28,2,,138,125,9.838969404,36.7219568384,-3.3795013097,"(-3.3795013097, 36.7219568384)"
PS0102-031,Parents Primary School,Arusha Municipal,Arusha,97.6744186,662,49,49,100,211,primary,non-government,Sokon I,251,16,8,,43,42,-2.325581395,36.6791641615,-3.4072505168,"(-3.4072505168, 36.6791641615)"
PS0102-032,Osunyai Primary School,Arusha Municipal,Arusha,72.46835443,3656,386,194,50.25906736,2795,primary,government,Sombetini,2384,53,2,,316,229,22.20928707,36.667124864,-3.390109552,"(-3.390109552, 36.667124864)"
PS0102-033,Imani Primary School,Arusha Municipal,Arusha,100,27,145,145,100,47,primary,non-government,Sombetini,1136,43,32,,159,159,0,36.6688352992,-3.3857656845,"(-3.3857656845, 36.6688352992)"
PS0102-034,Kilimani Primary School,Arusha Municipal,Arusha,100,438,64,63,98.4375,307,primary,non-government,Sekei,734,25,27,,80,80,1.5625,36.7020460674,-3.3622787394,"(-3.3622787394, 36.7020460674)"
PS0102-035,Swift Primary School,Arusha Municipal,Arusha,87.5,721,8,8,100,350,primary,,,,,,,16,14,-12.5,,,
PS0102-036,Prime Primary School,Arusha Municipal,Arusha,100,378,33,31,93.93939394,345,primary,non-government,Sekei,195,17,11,,20,20,6.060606061,,,
PS0102-037,Engarenarok Luth Tetra Pr. Sch,Arusha Municipal,Arusha,100,539,69,69,100,542,primary,,,,,,,62,62,0,,,
PS0102-038,Engira Primary School,Arusha Municipal,Arusha,82.45614035,2859,60,36,60,1441,primary,government,Themi,586,18,1,,57,47,22.45614035,36.6976162164,-3.3946755647,"(-3.3946755647, 36.6976162164)"
PS0102-039,Green Valley Primary School,Arusha Municipal,Arusha,100,199,100,100,100,197,primary,non-government,Sombetini,915,35,36,,119,119,0,36.6637857066,-3.4021872468,"(-3.4021872468, 36.6637857066)"
PS0102-040,Lise Primary School,Arusha Municipal,Arusha,95.23809524,1817,39,36,92.30769231,905,primary,non-government,Ngarenaro,120,15,16,,21,20,2.93040293,36.6740912687,-3.3656201746,"(-3.3656201746, 36.6740912687)"
PS0102-041,Mwangaza Primary School,Arusha Municipal,Arusha,84.57142857,1765,172,110,63.95348837,1843,primary,government,Ngarenaro,1294,39,3,,175,148,20.6179402,36.678183158,-3.3773090919,"(-3.3773090919, 36.678183158)"
PS0102-042,Sokoni I Primary School,Arusha Municipal,Arusha,70.46413502,3787,230,116,50.43478261,,primary,,,,,,,237,167,20.02935241,36.6677255539,-3.4021787389,"(-3.4021787389, 36.6677255539)"
PS0102-043,Shalom Primary School,Arusha Municipal,Arusha,100,150,63,63,100,82,primary,non-government,Lemara,590,25,24,,58,58,0,,,
PS0102-044,Bethel Primary School,Arusha Municipal,Arusha,96.77419355,644,19,17,89.47368421,433,primary,non-government,Kimandolu,196,13,6,,31,30,7.300509338,,,
PS0102-045,Assumption Primary School,Arusha Municipal,Arusha,100,341,36,36,100,227,primary,non-government,Oloirien,309,28,7,,23,23,0,36.7073583369,-3.3830736827,"(-3.3830736827, 36.7073583369)"
PS0102-046,Hady Primary School,Arusha Municipal,Arusha,100,71,96,96,100,203,primary,non-government,Sombetini,764,31,20,,58,58,0,,,
PS0102-047,Angelico Primary School,Arusha Municipal,Arusha,100,709,46,42,91.30434783,501,primary,,,,,,,51,51,8.695652174,,,
PS0102-048,Elerai Primary School,Arusha Municipal,Arusha,93.07692308,1284,273,185,67.76556777,1632,primary,government,Elerai,1598,46,3,,260,242,25.31135531,36.6582712497,-3.3724521395,"(-3.3724521395, 36.6582712497)"
PS0102-049,High View Primary School,Arusha Municipal,Arusha,100,123,56,56,100,104,primary,non-government,Sombetini,386,21,13,,46,46,0,,,
PS0102-050,Loamo Primary School,Arusha Municipal,Arusha,100,230,40,40,100,251,primary,non-government,Oloirien,263,17,9,,22,22,0,,,
PS0102-051,Makumbusho Primary School,Arusha Municipal,Arusha,93.24324324,1340,96,68,70.83333333,1239,primary,government,Kaloleni,760,27,2,,74,69,22.40990991,36.6903958219,-3.3669065541,"(-3.3669065541, 36.6903958219)"
PS0102-052,Moivoi Primary School,Arusha Municipal,Arusha,100,1236,97,82,84.53608247,993,primary,government,Olasiti,717,22,2,,91,91,15.46391753,36.7110209846,-3.390042995,"(-3.390042995, 36.7110209846)"
PS0102-053,Mount Meru Primary School,Arusha Municipal,Arusha,100,210,12,12,100,201,primary,non-government,Engutoto,244,11,12,,25,25,0,36.713439,-3.443944,"(-3.443944, 36.713439)"
PS0102-054,Ukombozi Primary School,Arusha Municipal,Arusha,74.07407407,3311,308,175,56.81818182,2222,primary,government,Sokon I,2735,50,4,,243,180,17.25589226,36.6824200793,-3.3923159373,"(-3.3923159373, 36.6824200793)"
PS0102-055,Unity Primary School,Arusha Municipal,Arusha,95.23809524,1381,37,33,89.18918919,1018,primary,non-government,Ngarenaro,292,14,11,,63,60,6.048906049,,,
PS0102-056,Salei Primary School,Arusha Municipal,Arusha,76.54320988,2729,157,117,74.52229299,1175,primary,government,Unga Ltd,1503,36,2,,162,124,2.020916883,,,
PS0102-057,Arusha Meru Primary School,Arusha Municipal,Arusha,100,705,8,8,100,758,primary,non-government,Levolosi,208,9,8,,5,5,0,,,
PS0102-058,Enalepo Primary School,Arusha Municipal,Arusha,100,296,26,26,100,284,primary,non-government,Daraja Ii,215,12,3,,12,12,0,,,
PS0102-059,Highridge Primary School,Arusha Municipal,Arusha,100,656,47,46,97.87234043,414,primary,,,,,,,55,55,2.127659575,36.7066134327,-3.3938201779,"(-3.3938201779, 36.7066134327)"
PS0102-060,Maranatha Primary School,Arusha Municipal,Arusha,100,525,17,17,100,269,primary,,,,,,,24,24,0,,,
PS0102-061,Notre Dame Primary School,Arusha Municipal,Arusha,100,225,24,24,100,281,primary,non-government,Lemara,177,12,12,,16,16,0,,,
PS0102-062,Shinda Basic Primary School,Arusha Municipal,Arusha,74.28571429,2727,37,25,67.56756757,1508,primary,non-government,Sokon I,199,9,4,,35,26,6.718146718,36.6788510492,-3.4027751718,"(-3.4027751718, 36.6788510492)"
PS0102-063,Kimandolu Luth Primary School,Arusha Municipal,Arusha,96.77419355,951,18,17,94.44444444,499,primary,,,,,,,31,30,2.329749104,,,
PS0102-064,Nalopa Primary School,Arusha Municipal,Arusha,100,44,18,18,100,91,primary,non-government,Engutoto,359,15,19,,24,24,0,36.7109954616,-3.4463607188,"(-3.4463607188, 36.7109954616)"
PS0102-065,Olaipapa Primary School,Arusha Municipal,Arusha,100,220,16,10,62.5,1759,primary,non-government,Sombetini,70,12,6,,17,17,37.5,,,
PS0102-066,Azimio Primary School,Arusha Municipal,Arusha,69.13580247,3876,211,87,41.23222749,3368,primary,government,Elerai,805,29,2,,81,56,27.90357498,36.6628126465,-3.365303837,"(-3.365303837, 36.6628126465)"
PS0102-067,Esa Primary School,Arusha Municipal,Arusha,100,355,49,49,100,228,primary,,,,,,,60,60,0,,,
PS0102-068,Joseph Primary School,Arusha Municipal,Arusha,100,208,15,15,100,93,primary,,,,,,,24,24,0,36.6728210094,-3.3626702422,"(-3.3626702422, 36.6728210094)"
PS0102-070,Mwaramu Primary School,Arusha Municipal,Arusha,100,508,14,14,100,295,primary,non-government,Sokon I,198,12,9,,9,9,0,36.6741470409,-3.3875502452,"(-3.3875502452, 36.6741470409)"
PS0102-071,Tuishime Primary School,Arusha Municipal,Arusha,100,323,20,20,100,303,primary,non-government,Engutoto,385,13,13,,23,23,0,36.7077207088,-3.4200742591,"(-3.4200742591, 36.7077207088)"
PS0102-072,St Thadeus Primary School,Arusha Municipal,Arusha,100,263,44,44,100,,primary,non-government,Elerai,208,13,,,26,26,0,,,
PS0102-073,Arusha Alliance Primary School,Arusha Municipal,Arusha,100,269,68,68,100,56,primary,non-government,Olasiti,872,35,18,,86,86,0,36.652815,-3.41581,"(-3.41581, 36.652815)"
PS0102-074,Burka Estate Primary School,Arusha Municipal,Arusha,63.91752577,4707,182,48,26.37362637,7085,primary,government,Olasiti,1383,32,1,,97,62,37.5438994,,,
PS0102-075,Caanan Primary School,Arusha Municipal,Arusha,96.66666667,708,8,8,100,452,primary,,,,,,,30,29,-3.333333333,,,
PS0102-076,High Challenge Primary School,Arusha Municipal,Arusha,100,76,5,5,100,262,primary,non-government,Terrat,138,12,5,,7,7,0,,,
PS0102-077,Hope Primary School,Arusha Municipal,Arusha,100,694,26,26,100,366,primary,non-government,Moshono,268,12,12,,30,30,0,,,
PS0102-078,Ledy Of Mercy Primary School,Arusha Municipal,Arusha,100,537,12,12,100,,primary,,,,,,,13,13,0,,,
PS0102-080,Lucky Vicent Primary School,Arusha Municipal,Arusha,100,79,35,35,100,102,primary,non-government,Olasiti,871,27,17,,69,69,0,36.654843,-3.410138,"(-3.410138, 36.654843)"
PS0102-081,Magereza Primary School,Arusha Municipal,Arusha,82.35294118,3089,72,53,73.61111111,1764,primary,government,Olasiti,942,25,1,,68,56,8.741830065,,,
PS0102-082,Mateves Primary School,Arusha Municipal,Arusha,50.87719298,5995,68,35,51.47058824,2904,primary,government,Olasiti,615,14,1,,57,29,-0.593395253,,,
PS0102-083,Michael Primary School,Arusha Municipal,Arusha,100,623,16,16,100,319,primary,,,,,,,24,24,0,,,
PS0102-084,Moshono Primary School,Arusha Municipal,Arusha,77.55102041,3247,82,59,71.95121951,1435,primary,government,Moshono,818,24,2,,98,76,5.599800896,,,
PS0102-085,Muriet Primary School,Arusha Municipal,Arusha,100,582,3,3,100,133,primary,non-government,Terrat,276,11,8,,8,8,0,,,
PS0102-086,Murongoine Primary School,Arusha Municipal,Arusha,71.15384615,4771,88,36,40.90909091,4063,primary,government,Olasiti,750,11,1,,104,74,30.24475524,,,
PS0102-087,Nakido Primary School,Arusha Municipal,Arusha,100,356,41,41,100,87,primary,non-government,Sokon I,720,24,19,,41,41,0,,,
PS0102-088,Olasiti Primary School,Arusha Municipal,Arusha,59.375,5526,174,60,34.48275862,5054,primary,government,Olasiti,1907,44,3,,224,133,24.89224138,36.646474,-3.400644,"(-3.400644, 36.646474)"
PS0102-089,Olkeryan Primary School,Arusha Municipal,Arusha,67.56756757,4348,92,42,45.65217391,,primary,,,,,,,111,75,21.91539365,,,
PS0102-090,Shangarao Primary School,Arusha Municipal,Arusha,80.58252427,2803,114,64,56.14035088,2578,primary,government,Moshono,788,21,2,,103,83,24.44217339,,,
PS0102-091,Shepherd Primary School,Arusha Municipal,Arusha,100,140,18,18,100,296,primary,,,,,,,25,25,0,,,
PS0102-092,St Andrew Primary School,Arusha Municipal,Arusha,100,1512,4,4,100,792,primary,,,,,,,9,9,0,,,
PS0102-093,St Thomas Primary School,Arusha Municipal,Arusha,100,257,53,52,98.11320755,174,primary,non-government,Moshono,378,23,12,,51,51,1.886792453,,,
PS0102-094,Terrat Primary School,Arusha Municipal,Arusha,53.65853659,6125,93,51,54.83870968,3260,primary,government,Terrat,1240,17,2,,82,44,-1.180173092,36.651745,-3.456195,"(-3.456195, 36.651745)"
PS0102-095,Uhuru Peak Primary School,Arusha Municipal,Arusha,100,532,26,23,88.46153846,349,primary,non-government,Baraa,420,15,10,,33,33,11.53846154,36.7370171925,-3.3707136753,"(-3.3707136753, 36.7370171925)"
PS0102-096,Wema Primary School,Arusha Municipal,Arusha,75.72815534,3307,94,49,52.12765957,3000,primary,government,Moshono,868,32,3,,103,78,23.60049577,,,
PS0102-097,Camp Joshua Primary School,Arusha Municipal,Arusha,100,944,13,11,84.61538462,1626,primary,non-government,Sokon I,103,8,9,,20,20,15.38461538,,,
PS0102-098,Sojema Primary School,Arusha Municipal,Arusha,100,2628,3,3,100,237,primary,non-government,Terrat,199,14,9,,9,9,0,,,
PS0102-099,Mecson Primary School,Arusha Municipal,Arusha,100,418,15,15,100,139,primary,,,,,,,17,17,0,,,
PS0102-100,St Jude Primary School,Arusha Municipal,Arusha,100,223,217,217,100,110,primary,non-government,Moshono,998,104,164,,168,168,0,,,
PS0102-101,Integrity Primary School,Arusha Municipal,Arusha,100,725,6,6,100,626,primary,non-government,Daraja Ii,402,11,3,,13,13,0,36.692827026,-3.3848741482,"(-3.3848741482, 36.692827026)"
PS0102-102,Bible Baptist Primary School,Arusha Municipal,Arusha,100,298,,,,,primary,non-government,Oloirien,235,19,10,,17,17,,,,
PS0102-103,Intel Primary School,Arusha Municipal,Arusha,95.45454545,733,,,,,primary,non-government,Terrat,233,11,12,,22,21,,,,
PS0102-104,Royal Primary School,Arusha Municipal,Arusha,100,585,,,,,primary,,,,,,,10,10,,,,
PS0103-001,Ayalabe Primary School,Karatu,Arusha,47.27272727,7497,89,29,32.58426966,5443,primary,government,Ganako,378,17,,,55,26,14.68845761,35.6616982556,-3.3435022862,"(-3.3435022862, 35.6616982556)"
PS0103-002,Barakta Primary School,Karatu,Arusha,80,5758,47,20,42.55319149,4445,primary,government,Kansay,517,11,,,30,24,37.44680851,,,
PS0103-003,Bashaykaratu Primary School,Karatu,Arusha,61.72839506,4464,85,26,30.58823529,4093,primary,,,,,,,81,50,31.14015977,,,
PS0103-004,Bassodawish Primary School,Karatu,Arusha,60.37735849,5265,80,17,21.25,8241,primary,government,Endamarariek,498,14,,,53,32,39.12735849,35.6439221557,-3.4718242694,"(-3.4718242694, 35.6439221557)"
PS0103-005,Buger Primary School,Karatu,Arusha,52.94117647,6515,64,3,4.6875,14359,primary,government,Buger,446,15,,,51,27,48.25367647,35.6243571652,-3.6627647934,"(-3.6627647934, 35.6243571652)"
PS0103-006,Bwawani Primary School,Karatu,Arusha,65.6,4710,113,44,38.9380531,3704,primary,government,Karatu,1023,33,,,125,82,26.6619469,35.6470373609,-3.368611308,"(-3.368611308, 35.6470373609)"
PS0103-007,Changarawe Primary School,Karatu,Arusha,32.55813953,11773,39,3,7.692307692,11241,primary,government,Daa,377,10,,,43,14,24.86583184,35.5484407811,-3.4087514007,"(-3.4087514007, 35.5484407811)"
PS0103-008,Chemchem Primary School,Karatu,Arusha,36.36363636,9316,60,8,13.33333333,9713,primary,government,Rhotia,312,14,,,33,12,23.03030303,35.7372319665,-3.4154943725,"(-3.4154943725, 35.7372319665)"
PS0103-009,Dumbechand Primary School,Karatu,Arusha,12.72727273,14376,42,2,4.761904762,12960,primary,government,Baray,402,10,,,55,7,7.965367965,35.2851690383,-3.609654752,"(-3.609654752, 35.2851690383)"
PS0103-010,Endabash Primary School,Karatu,Arusha,43.47826087,9496,100,15,15,10096,primary,government,Endabash,684,20,,,69,30,28.47826087,35.5879592853,-3.6083299953,"(-3.6083299953, 35.5879592853)"
PS0103-011,Endallah Primary School,Karatu,Arusha,51.51515152,6367,73,15,20.54794521,8534,primary,government,Endamarariek,794,15,,,99,51,30.96720631,35.7086134709,-3.4830800964,"(-3.4830800964, 35.7086134709)"
PS0103-012,Endamaghan Primary School,Karatu,Arusha,60.29411765,4513,113,33,29.20353982,7094,primary,,,,,,,68,41,31.09057782,35.3074641206,-3.4019340869,"(-3.4019340869, 35.3074641206)"
PS0103-013,Endamarariek Primary School,Karatu,Arusha,39.24050633,9408,63,14,22.22222222,8414,primary,government,Endamarariek,772,13,,,79,31,17.01828411,35.6405496906,-3.5262104756,"(-3.5262104756, 35.6405496906)"
PS0103-014,Endonyawe Primary School,Karatu,Arusha,30.43478261,11423,70,6,8.571428571,12666,primary,,,,,,,69,21,21.86335404,35.6488560752,-3.6124458606,"(-3.6124458606, 35.6488560752)"
PS0103-015,Endashangwet Primary School,Karatu,Arusha,50,6612,49,15,30.6122449,6695,primary,government,Daa,463,10,,,46,23,19.3877551,,,
PS0103-016,Gyekurum Lambo Primary School,Karatu,Arusha,21.59090909,12995,82,2,2.43902439,14304,primary,,,,,,,88,19,19.1518847,,,
PS0103-017,Gendaa Primary School,Karatu,Arusha,20.96774194,13798,81,2,2.469135803,11854,primary,government,Karatu,511,15,,,62,13,18.49860613,35.6619023269,-3.4245730019,"(-3.4245730019, 35.6619023269)"
PS0103-018,Getamock Primary School,Karatu,Arusha,36.66666667,10239,75,20,26.66666667,7262,primary,government,Endamarariek,598,13,,,60,22,10,,,
PS0103-019,Gongali Primary School,Karatu,Arusha,100,703,44,42,95.45454545,637,primary,government,Qurus,445,18,,,43,43,4.545454546,35.6263256016,-3.414125427,"(-3.414125427, 35.6263256016)"
PS0103-020,Gyetighi Primary School,Karatu,Arusha,97.36842105,305,41,41,100,419,primary,government,Oldeani,475,11,,,38,37,-2.631578947,,,
PS0103-021,Kainam/rhotia Primary School,Karatu,Arusha,56.25,6239,52,1,1.923076923,13093,primary,,,,,,,32,18,54.32692308,35.6965331092,-3.376499167,"(-3.376499167, 35.6965331092)"
PS0103-022,Kambi Ya Faru Primary School,Karatu,Arusha,46.51162791,6914,68,15,22.05882353,7901,primary,,,,,,,43,20,24.45280438,,,
PS0103-023,Kambi Ya Nyoka Primary School,Karatu,Arusha,62.68656716,5027,54,17,31.48148148,5745,primary,,,,,,,67,42,31.20508568,,,
PS0103-024,Kansay Primary School,Karatu,Arusha,25,11742,24,2,8.333333333,11310,primary,government,Kansay,485,10,,,40,10,16.66666667,35.5657696236,-3.6938086558,"(-3.6938086558, 35.5657696236)"
PS0103-025,Karatu Primary School,Karatu,Arusha,48.68421053,7000,76,24,31.57894737,6234,primary,government,Karatu,517,15,,,76,37,17.10526316,35.6649646676,-3.3708213019,"(-3.3708213019, 35.6649646676)"
PS0103-026,Kilimamoja Primary School,Karatu,Arusha,61.36363636,5578,77,32,41.55844156,3745,primary,,,,,,,88,54,19.80519481,35.7781874916,-3.3771710668,"(-3.3771710668, 35.7781874916)"
PS0103-027,Kilimatembo Primary School,Karatu,Arusha,75.86206897,4155,41,1,2.43902439,11912,primary,,,,,,,29,22,73.42304458,35.7318457052,-3.3352746051,"(-3.3352746051, 35.7318457052)"
PS0103-028,Kitete Kcu Primary School,Karatu,Arusha,60,6778,47,9,19.14893617,8013,primary,government,Mbulumbulu,58,11,,,45,27,40.85106383,35.8572964015,-3.2703566893,"(-3.2703566893, 35.8572964015)"
PS0103-029,Kitete W/s Primary School,Karatu,Arusha,65.30612245,2417,53,19,35.8490566,4563,primary,,,,,,,49,32,29.45706585,,,
PS0103-030,Laghangarery Primary School,Karatu,Arusha,29.62962963,10442,52,14,26.92307692,6326,primary,,,,,,,54,16,2.706552707,,,
PS0103-031,Laja Primary School,Karatu,Arusha,78.94736842,3694,22,2,9.090909091,13283,primary,government,Kansay,158,8,,,19,15,69.85645933,35.5321793405,-3.6655448281,"(-3.6655448281, 35.5321793405)"
PS0103-032,Lositete Primary School,Karatu,Arusha,98.4375,557,108,2,1.851851852,14090,primary,,,,,,,64,63,96.58564815,35.8713647871,-3.2097787593,"(-3.2097787593, 35.8713647871)"
PS0103-033,Mang'ola Chini Primary School,Karatu,Arusha,60.97560976,5168,67,29,43.28358209,,primary,,,,,,,82,50,17.69202767,35.3048772354,-3.5544456365,"(-3.5544456365, 35.3048772354)"
PS0103-034,Mang'ola Juu Primary School,Karatu,Arusha,40,9092,43,4,9.302325581,10505,primary,,,,,,,50,20,30.69767442,35.4707959881,-3.4143243345,"(-3.4143243345, 35.4707959881)"
PS0103-035,Mang'ola Nt Primary School,Karatu,Arusha,32.69230769,11141,57,0,0,14449,primary,government,Baray,578,14,,,52,17,32.69230769,35.3106892083,-3.5761075536,"(-3.5761075536, 35.3106892083)"
PS0103-036,Mbulumbulu Primary School,Karatu,Arusha,46.47887324,7914,54,21,38.88888889,4816,primary,government,Mbulumbulu,545,12,,,71,33,7.589984351,35.766703661,-3.2963747887,"(-3.2963747887, 35.766703661)"
PS0103-037,Oldeani Primary School,Karatu,Arusha,39.74358974,9695,71,26,36.61971831,5207,primary,government,Oldeani,733,17,,,78,31,3.123871434,35.5291407984,-3.3776306701,"(-3.3776306701, 35.5291407984)"
PS0103-038,Qangdend Primary School,Karatu,Arusha,24.41860465,12341,104,10,9.615384615,10104,primary,government,Baray,784,14,,,86,21,14.80322004,35.3646556548,-3.5295620929,"(-3.5295620929, 35.3646556548)"
PS0103-039,Qaru Primary School,Karatu,Arusha,40.90909091,9587,72,5,6.944444444,12247,primary,government,Endabash,623,13,,,44,18,33.96464646,35.5934810073,-3.5442020458,"(-3.5442020458, 35.5934810073)"
PS0103-040,Qurus Primary School,Karatu,Arusha,24.44444444,12701,50,17,34,5310,primary,government,Qurus,327,12,,,45,11,-9.555555556,35.5809024254,-3.4574673725,"(-3.4574673725, 35.5809024254)"
PS0103-041,Rhotia Primary School,Karatu,Arusha,63.63636364,6821,64,18,28.125,5701,primary,government,Rhotia,529,21,,,77,49,35.51136364,35.7043134572,-3.3349988105,"(-3.3349988105, 35.7043134572)"
PS0103-042,Sumawe Primary School,Karatu,Arusha,92.74193548,1006,112,83,74.10714286,1176,primary,government,Ganako,957,27,,,124,115,18.63479263,35.6371167056,-3.3577756827,"(-3.3577756827, 35.6371167056)"
PS0103-043,Tloma Primary School,Karatu,Arusha,83.82352941,1266,87,24,27.5862069,5649,primary,government,Ganako,663,17,,,68,57,56.23732252,35.6425114199,-3.3375086592,"(-3.3375086592, 35.6425114199)"
PS0103-044,Slahhamo Primary School,Karatu,Arusha,49.18032787,9457,75,5,6.666666667,11112,primary,government,Mbulumbulu,509,11,,,61,30,42.5136612,35.8188469464,-3.270384894,"(-3.270384894, 35.8188469464)"
PS0103-045,Midabini Primary School,Karatu,Arusha,15.78947368,11738,12,0,0,15033,primary,government,Daa,125,6,,,19,3,15.78947368,,,
PS0103-046,Njiapanda Primary School,Karatu,Arusha,44.15584416,8081,68,24,35.29411765,4896,primary,,,,,,,77,34,8.861726509,35.5792492681,-3.3911356574,"(-3.3911356574, 35.5792492681)"
PS0103-047,Kibaoni Primary School,Karatu,Arusha,39.65517241,8707,82,25,30.48780488,4894,primary,government,Rhotia,690,19,,,58,23,9.167367536,,,
PS0103-048,Makhoromba Primary School,Karatu,Arusha,25.86206897,11561,38,2,5.263157895,11857,primary,,,,,,,58,15,20.59891107,35.4060007791,-3.4063371284,"(-3.4063371284, 35.4060007791)"
PS0103-049,Menday Primary School,Karatu,Arusha,70.58823529,5922,21,3,14.28571429,9347,primary,government,Qurus,269,8,,,17,12,56.30252101,35.5887392751,-3.4355839881,"(-3.4355839881, 35.5887392751)"
PS0103-050,Qarulambo Primary School,Karatu,Arusha,32,10342,55,11,20,9436,primary,,,,,,,50,16,12,,,
PS0103-051,Eyasi Primary School,Karatu,Arusha,31.91489362,11479,78,12,15.38461538,9096,primary,government,Mang'ola,624,15,,,94,30,16.53027823,35.2720864455,-3.5475309739,"(-3.5475309739, 35.2720864455)"
PS0103-052,Masabeda Primary School,Karatu,Arusha,2.127659575,14861,26,4,15.38461538,11316,primary,,,,,,,47,1,-13.25695581,35.7029670718,-3.5116072734,"(-3.5116072734, 35.7029670718)"
PS0103-053,Kambi Ya Simba Primary School,Karatu,Arusha,20.3125,11373,76,16,21.05263158,6531,primary,,,,,,,64,13,-0.740131579,35.7842296797,-3.3104670996,"(-3.3104670996, 35.7842296797)"
PS0103-054,Ayalaliyo Primary School,Karatu,Arusha,24.13793103,12621,92,6,6.52173913,14752,primary,,,,,,,58,14,17.6161919,35.6302411719,-3.6416364293,"(-3.6416364293, 35.6302411719)"
PS0103-055,Baray-khusumayi Primary School,Karatu,Arusha,51.66666667,6713,70,15,21.42857143,6333,primary,,,,,,,60,31,30.23809524,,,
PS0103-056,Marera Primary School,Karatu,Arusha,61.36363636,5341,56,11,19.64285714,10443,primary,government,Rhotia,393,11,,,44,27,41.72077922,35.6866312776,-3.3299056454,"(-3.3299056454, 35.6866312776)"
PS0103-057,Meali Primary School,Karatu,Arusha,36.36363636,11892,31,12,38.70967742,5837,primary,government,Oldeani,336,9,,,33,12,-2.346041056,35.5043647164,-3.3985916415,"(-3.3985916415, 35.5043647164)"
PS0103-058,Dirangw Primary School,Karatu,Arusha,93.75,811,40,32,80,978,primary,government,Mbulumbulu,352,9,,,32,30,13.75,35.8145030002,-3.3176277644,"(-3.3176277644, 35.8145030002)"
PS0103-059,Endabash-mangisa Primary School,Karatu,Arusha,32.25806452,9574,52,2,3.846153846,12553,primary,,,,,,,31,10,28.41191067,35.62836,-3.5631,"(-3.5631, 35.62836)"
PS0103-060,Magesho Primary School,Karatu,Arusha,50,8825,40,11,27.5,5778,primary,government,Qurus,219,9,,,38,19,22.5,35.6165156657,-3.4507717982,"(-3.4507717982, 35.6165156657)"
PS0103-061,Shangit Primary School,Karatu,Arusha,30,10578,48,5,10.41666667,10148,primary,government,Endamarariek,442,11,,,50,15,19.58333333,35.6651235094,-3.4830514686,"(-3.4830514686, 35.6651235094)"
PS0103-062,Qaru Saramay Primary School,Karatu,Arusha,25,13670,36,3,8.333333333,13025,primary,,,,,,,28,7,16.66666667,,,
PS0103-063,Endabash-laja Primary School,Karatu,Arusha,31.81818182,11429,47,19,40.42553191,3884,primary,,,,,,,44,14,-8.607350097,,,
PS0103-064,Mikocheni Primary School,Karatu,Arusha,23.72881356,12643,40,3,7.5,12538,primary,government,Mang'ola,337,9,,,59,14,16.22881356,35.3334644232,-3.4777921745,"(-3.4777921745, 35.3334644232)"
PS0103-065,Endoro Primary School,Karatu,Arusha,90.54054054,1081,108,54,50,3098,primary,government,Karatu,608,22,,,74,67,40.54054054,35.6501542791,-3.3640570915,"(-3.3640570915, 35.6501542791)"
PS0103-066,Gidbasso Primary School,Karatu,Arusha,25.3968254,11904,52,15,28.84615385,7572,primary,government,Endamarariek,513,11,,,63,16,-3.449328449,35.6709024772,-3.5102813923,"(-3.5102813923, 35.6709024772)"
PS0103-067,Gilala Primary School,Karatu,Arusha,45.45454545,9492,45,4,8.888888889,9713,primary,government,Rhotia,313,10,,,44,20,36.56565657,,,
PS0103-068,Mang'ola Barazani Primary School,Karatu,Arusha,71.15384615,3225,60,34,56.66666667,2157,primary,,,,,,,52,37,14.48717949,35.3138414497,-3.5416412549,"(-3.5416412549, 35.3138414497)"
PS0103-069,Matala Primary School,Karatu,Arusha,3.225806452,15519,24,0,0,13229,primary,government,Baray,410,4,,,31,1,3.225806452,34.7224973298,-3.9006197833,"(-3.9006197833, 34.7224973298)"
PS0103-070,Mbuganyekundu Primary School,Karatu,Arusha,54.83870968,8060,64,4,6.25,12569,primary,government,Baray,911,10,,,62,34,48.58870968,35.3476503597,-3.5601490612,"(-3.5601490612, 35.3476503597)"
PS0103-071,Umbang'w Primary School,Karatu,Arusha,30.3030303,10659,42,5,11.9047619,12309,primary,,,,,,,33,10,18.3982684,,,
PS0103-072,Gyekrum Arusha Primary School,Karatu,Arusha,66.07142857,3783,70,17,24.28571429,6059,primary,,,,,,,56,37,41.78571429,,,
PS0103-073,Kinihhe Primary School,Karatu,Arusha,80,2413,55,13,23.63636364,6036,primary,government,Qurus,453,13,,,55,44,56.36363636,35.6310257903,-3.3832592509,"(-3.3832592509, 35.6310257903)"
PS0103-074,Akko Primary School,Karatu,Arusha,23.80952381,12544,49,10,20.40816327,9298,primary,government,Rhotia,326,15,,,42,10,3.401360544,,,
PS0103-075,Hareabi Primary School,Karatu,Arusha,42.85714286,9626,30,0,0,14166,primary,government,Rhotia,220,8,,,28,12,42.85714286,35.7133934301,-3.3638005637,"(-3.3638005637, 35.7133934301)"
PS0103-076,Umoja Primary School,Karatu,Arusha,86.66666667,2656,48,26,54.16666667,3458,primary,government,Rhotia,370,11,,,30,26,32.5,35.7162495172,-3.3169827692,"(-3.3169827692, 35.7162495172)"
PS0103-077,Mahhahha Primary School,Karatu,Arusha,18.18181818,14257,50,9,18,9057,primary,government,Endamarariek,265,8,,,44,8,0.181818182,35.6984414105,-3.5357485629,"(-3.5357485629, 35.6984414105)"
PS0103-078,Hayedesh Primary School,Karatu,Arusha,40.90909091,8151,20,8,40,6560,primary,,,,,,,22,9,0.909090909,,,
PS0103-079,Shauriawaki Primary School,Karatu,Arusha,33.33333333,9229,39,8,20.51282051,9031,primary,,,,,,,33,11,12.82051282,,,
PS0103-080,Haraa Primary School,Karatu,Arusha,30,11765,29,1,3.448275862,12662,primary,government,Kansay,318,7,,,30,9,26.55172414,35.582517746,-3.6806733206,"(-3.6806733206, 35.582517746)"
PS0103-081,Endagesh Primary School,Karatu,Arusha,30.18867925,9719,42,6,14.28571429,8649,primary,government,Kansay,362,9,,,53,16,15.90296496,35.556850335,-3.6734725277,"(-3.6734725277, 35.556850335)"
PS0103-082,Sabasaba Primary School,Karatu,Arusha,30.43478261,10334,44,5,11.36363636,10791,primary,government,Mbulumbulu,242,8,,,23,7,19.07114625,35.837666127,-3.3001131619,"(-3.3001131619, 35.837666127)"
PS0103-083,Bondelafaru Primary School,Karatu,Arusha,46.42857143,8137,18,11,61.11111111,3080,primary,,,,,,,28,13,-14.68253968,35.8479068897,-3.2465295082,"(-3.2465295082, 35.8479068897)"
PS0103-084,Gamdi Primary School,Karatu,Arusha,45.23809524,8628,61,5,8.196721312,13116,primary,government,Buger,273,8,,,42,19,37.04137393,35.6185300008,-3.6817874498,"(-3.6817874498, 35.6185300008)"
PS0103-085,Naasha Annex Junior School,Karatu,Arusha,100,582,7,7,100,,primary,,,,,,,8,8,0,,,
PS0103-086,Antsa Primary School,Karatu,Arusha,75,4577,31,11,35.48387097,3913,primary,government,Mang'ola,624,12,,,44,33,39.51612903,35.3163602329,-3.5487850749,"(-3.5487850749, 35.3163602329)"
PS0103-087,Duuma Primary School,Karatu,Arusha,90.90909091,1567,41,13,31.70731707,7000,primary,government,Endamarariek,397,9,,,33,30,59.20177384,35.6293427168,-3.5481849169,"(-3.5481849169, 35.6293427168)"
PS0103-088,Endesh Primary School,Karatu,Arusha,0,15408,8,2,25,9415,primary,government,Baray,204,2,,,11,0,-25,34.9101764506,-3.8179114559,"(-3.8179114559, 34.9101764506)"
PS0103-089,Njoro Primary School,Karatu,Arusha,0,15475,24,0,0,14751,primary,government,Baray,196,3,,,13,0,0,,,
PS0103-090,Tumaini Junior School,Karatu,Arusha,100,40,36,36,100,159,primary,,,,,,,44,44,0,,,
PS0103-091,Haymu Primary School,Karatu,Arusha,100,916,43,22,51.1627907,2852,primary,government,Ganako,415,17,,,35,35,48.8372093,35.6647244692,-3.3585768016,"(-3.3585768016, 35.6647244692)"
PS0103-092,Juhudi Primary School,Karatu,Arusha,23.07692308,13018,39,6,15.38461538,8300,primary,government,Rhotia,178,8,,,26,6,7.692307692,35.7021542086,-3.3898668439,"(-3.3898668439, 35.7021542086)"
PS0103-093,Geer Primary School,Karatu,Arusha,61.53846154,5611,,,,,primary,government,Kansay,310,7,,,39,24,,35.575009161,-3.6566189818,"(-3.6566189818, 35.575009161)"
PS0103-094,Marmo Primary School,Karatu,Arusha,100,520,,,,,primary,government,Mbulumbulu,299,9,,,29,29,,,,
PS0103-095,Mchangani Primary School,Karatu,Arusha,28.88888889,10653,,,,,primary,government,Endamarariek,282,8,,,45,13,,,,
PS0103-096,Mohedagew Primary School,Karatu,Arusha,8.695652174,11484,,,,,primary,government,Baray,135,3,,,23,2,,34.9802549461,-3.7850754607,"(-3.7850754607, 34.9802549461)"
PS0104-001,Elang'atadapash Prmary School,Longido,Arusha,8.888888889,14859,41,1,2.43902439,,primary,,,,,,,45,4,6.449864499,,,
PS0104-002,Elerai Primary School,Longido,Arusha,7.547169811,15354,28,3,10.71428571,13490,primary,government,Olmolog,374,10,2,0,53,4,-3.167115903,37.066983731,-2.9235828066,"(-2.9235828066, 37.066983731)"
PS0104-003,Engarenaibor Primary School,Longido,Arusha,32,12459,84,6,7.142857143,13993,primary,government,Engarenaibor,501,16,1,0,100,32,24.85714286,36.4842660523,-2.5261359038,"(-2.5261359038, 36.4842660523)"
PS0104-004,Engikareti Primary School,Longido,Arusha,40,8862,60,5,8.333333333,12080,primary,,,,,,,50,20,31.66666667,36.6951155579,-3.042392316,"(-3.042392316, 36.6951155579)"
PS0104-005,Gelai Bomba Primary School,Longido,Arusha,9.722222222,15017,68,6,8.823529412,14218,primary,government,Gelai Meirugoi,482,10,3,0,72,7,0.89869281,,,
PS0104-006,Gelai Lumbwa Primary School,Longido,Arusha,30.3030303,12522,54,3,5.555555556,14772,primary,government,Gelai Lumbwa,642,7,,0,33,10,24.74747475,36.186711368,-2.6178184882,"(-2.6178184882, 36.186711368)"
PS0104-007,Ilorienito Primary School,Longido,Arusha,2.702702703,15596,52,0,0,15213,primary,,,,,,,74,2,2.702702703,36.18240732,-2.9364683539,"(-2.9364683539, 36.18240732)"
PS0104-008,Kamwanga Primary School,Longido,Arusha,36.70886076,9708,53,10,18.86792453,7641,primary,government,Kamwanga,876,15,3,0,79,29,17.84093623,37.3623240628,-2.8830066196,"(-2.8830066196, 37.3623240628)"
PS0104-009,Ketumbeine Primary School,Longido,Arusha,34.7107438,11415,103,14,13.59223301,12090,primary,government,Ketumbeine,663,19,1,0,121,42,21.11851079,36.3076438231,-2.8307916122,"(-2.8307916122, 36.3076438231)"
PS0104-010,Kimokouwa Primary School,Longido,Arusha,80.55555556,3345,71,0,0,15311,primary,,,,,,,36,29,80.55555556,36.7010901606,-2.640351094,"(-2.640351094, 36.7010901606)"
PS0104-011,Kiserian Primary School,Longido,Arusha,7.547169811,14644,30,0,0,14361,primary,government,Engikaret,450,9,1,0,53,4,7.547169811,36.5283194712,-2.8481696152,"(-2.8481696152, 36.5283194712)"
PS0104-012,Lerang'wa Primary School,Longido,Arusha,52.38095238,8032,60,6,10,10427,primary,government,Olmolog,581,15,2,0,63,33,42.38095238,37.1185593898,-2.8422910033,"(-2.8422910033, 37.1185593898)"
PS0104-013,Longido Primary School,Longido,Arusha,89.77272727,1167,70,50,71.42857143,1234,primary,government,Longido,915,36,1,2,88,79,18.34415584,36.7001056634,-2.7246997573,"(-2.7246997573, 36.7001056634)"
PS0104-014,Matale Primary School,Longido,Arusha,28.57142857,11603,32,4,12.5,13759,primary,government,Matale,249,8,2,0,35,10,16.07142857,,,
PS0104-015,Mundarara Primary School,Longido,Arusha,40,9142,29,1,3.448275862,14674,primary,government,Mundarara,511,12,2,0,25,10,36.55172414,,,
PS0104-016,Namanga Primary School,Longido,Arusha,75.34246575,3591,168,30,17.85714286,8039,primary,government,Namanga,723,20,3,0,146,110,57.4853229,36.7874241089,-2.551750163,"(-2.551750163, 36.7874241089)"
PS0104-017,Ngereyani Primary School,Longido,Arusha,4.444444444,15239,32,0,0,12909,primary,government,Tingatinga,450,8,,0,45,2,4.444444444,36.8552311208,-2.9810029893,"(-2.9810029893, 36.8552311208)"
PS0104-018,Olmolog Primary School,Longido,Arusha,41.07142857,10453,50,12,24,7697,primary,government,Olmolog,562,9,1,0,56,23,17.07142857,37.1248232688,-2.8670679234,"(-2.8670679234, 37.1248232688)"
PS0104-019,Sinya Primary School,Longido,Arusha,100,162,84,81,96.42857143,267,primary,government,Tingatinga,826,12,4,2,98,98,3.571428571,36.9547215263,-2.7828628961,"(-2.7828628961, 36.9547215263)"
PS0104-020,Tingatinga Primary School,Longido,Arusha,57.14285714,6191,27,1,3.703703704,12339,primary,government,Tingatinga,478,10,2,0,35,20,53.43915344,36.9563602113,-2.9784114594,"(-2.9784114594, 36.9563602113)"
PS0104-021,Kitendeni Primary School,Longido,Arusha,27.27272727,11703,39,10,25.64102564,8278,primary,government,Kamwanga,528,10,2,0,44,12,1.631701632,37.2373526269,-2.8408063441,"(-2.8408063441, 37.2373526269)"
PS0104-022,Losirwa Primary School,Longido,Arusha,0,15579,22,0,0,15196,primary,government,Iloirienito,454,6,3,0,66,0,0,,,
PS0104-023,Eorendeke Primary School,Longido,Arusha,81.81818182,1955,53,11,20.75471698,7123,primary,government,Kimokoua,491,12,1,0,33,27,61.06346484,36.7788643001,-2.5583890166,"(-2.5583890166, 36.7788643001)"
PS0104-024,Irkaswa Primary School,Longido,Arusha,21.05263158,13115,84,7,8.333333333,12561,primary,government,Kamwanga,761,11,2,0,76,16,12.71929825,37.3278053215,-2.8634952012,"(-2.8634952012, 37.3278053215)"
PS0104-025,Noondoto Primary School,Longido,Arusha,2.816901409,15274,37,3,8.108108108,12871,primary,government,Eleng'atadapash,726,12,2,0,71,2,-5.2912067,36.2930015889,-2.9932691708,"(-2.9932691708, 36.2930015889)"
PS0104-026,Olchoronyokie Primary School,Longido,Arusha,2.380952381,15333,55,2,3.636363636,14738,primary,government,Eleng'atadapash,430,7,3,0,42,1,-1.255411255,,,
PS0104-027,Ngoswak Primary School,Longido,Arusha,19.60784314,13609,66,4,6.060606061,14575,primary,government,Engarenaibor,296,8,2,0,51,10,13.54723708,36.4945886233,-2.5090009326,"(-2.5090009326, 36.4945886233)"
PS0104-028,Sinonik Primary School,Longido,Arusha,5.555555556,14777,35,2,5.714285714,14686,primary,government,Engarenaibor,349,6,2,0,36,2,-0.158730159,36.5793589226,-2.5013335076,"(-2.5013335076, 36.5793589226)"
PS0104-029,Emurutoto Primary School,Longido,Arusha,60,8097,14,0,0,15353,primary,,,,,,,5,3,60,36.3772740236,-2.3595131146,"(-2.3595131146, 36.3772740236)"
PS0104-030,Kitarini Primary School,Longido,Arusha,12.5,14513,47,4,8.510638298,14756,primary,government,Mundarara,453,9,2,0,48,6,3.989361702,36.4643675442,-2.6226707568,"(-2.6226707568, 36.4643675442)"
PS0104-031,Abernathy Primary School,Longido,Arusha,53.96825397,6644,36,16,44.44444444,3469,primary,non-government,Longido,219,24,8,0,63,34,9.523809524,,,
PS0104-032,Irng'ong'wen Primary School,Longido,Arusha,29.16666667,10116,37,10,27.02702703,6541,primary,,,,,,,24,7,2.13963964,,,
PS0104-033,Magadini Primary School,Longido,Arusha,50,9905,14,0,0,13248,primary,government,Gelai Meirugoi,250,3,1,0,22,11,50,36.00593273,-2.6298476134,"(-2.6298476134, 36.00593273)"
PS0104-034,St Theresa Primary School,Longido,Arusha,93.93939394,918,,,,,primary,,,,,,,33,31,,,,
PS0104-035,Orbomba Primary School,Longido,Arusha,41.17647059,11131,,,,,primary,government,Orbomba,294,10,3,0,17,7,,36.681306,-2.730557,"(-2.730557, 36.681306)"
PS0105-001,Akeri Primary School,Meru,Arusha,58.18181818,5446,51,22,43.1372549,3376,primary,government,Akeri,439,20,,0,55,32,15.04456328,36.7777640038,-3.3517150004,"(-3.3517150004, 36.7777640038)"
PS0105-002,Amani Primary School,Meru,Arusha,100,129,52,52,100,22,primary,non-government,Usa River,400,19,,0,37,37,0,,,
PS0105-003,Ambureni Primary School,Meru,Arusha,85.41666667,2632,102,36,35.29411765,4840,primary,government,Nkoanrua,775,39,,0,96,82,50.12254902,36.7538011145,-3.3673174746,"(-3.3673174746, 36.7538011145)"
PS0105-004,Chemchem Primary School,Meru,Arusha,75,4370,94,21,22.34042553,7783,primary,government,Kikatiti,721,31,,0,92,69,52.65957447,36.941109,-3.390218,"(-3.390218, 36.941109)"
PS0105-005,Dolly Primary School,Meru,Arusha,21.21212121,11867,52,3,5.769230769,11754,primary,government,Maroroni,610,13,,0,33,7,15.44289044,36.879969906,-3.4310676271,"(-3.4310676271, 36.879969906)"
PS0105-006,Emmanuel Primary School,Meru,Arusha,80.95238095,3578,38,27,71.05263158,1299,primary,,,,,,,21,17,9.899749374,36.8838948558,-3.1527540131,"(-3.1527540131, 36.8838948558)"
PS0105-007,Engatani Primary School,Meru,Arusha,61.29032258,3601,17,2,11.76470588,8107,primary,government,Makiba,590,9,,0,31,19,49.5256167,37.0017985473,-3.5120713068,"(-3.5120713068, 37.0017985473)"
PS0105-008,Etingare Primary School,Meru,Arusha,25,13769,72,2,2.777777778,13493,primary,government,Leguruki,506,10,4,0,40,10,22.22222222,36.9651090233,-3.2194426702,"(-3.2194426702, 36.9651090233)"
PS0105-009,Fikiria Kwanza,Meru,Arusha,87.5,1597,23,21,91.30434783,261,primary,,,,,,,8,7,-3.804347826,36.8400434784,-3.3744744251,"(-3.3744744251, 36.8400434784)"
PS0105-010,Ilkirimuni Primary School,Meru,Arusha,6.25,14542,17,0,0,,primary,,,,,,,16,1,6.25,,,
PS0105-011,Imbasenyi Primary School,Meru,Arusha,40,8851,93,20,21.50537634,,primary,,,,,,,70,28,18.49462366,36.8914733385,-3.3452681637,"(-3.3452681637, 36.8914733385)"
PS0105-012,Kandashe Primary School,Meru,Arusha,58.13953488,6517,46,0,0,13990,primary,government,Leguruki,490,8,,0,43,25,58.13953488,36.9403539192,-3.2062559207,"(-3.2062559207, 36.9403539192)"
PS0105-013,Karangai Primary School,Meru,Arusha,46.93877551,7689,55,15,27.27272727,5933,primary,government,Kikwe,490,11,,0,49,23,19.66604824,36.8665246511,-3.4773622374,"(-3.4773622374, 36.8665246511)"
PS0105-014,Kikatiti Primary School,Meru,Arusha,54.31034483,6413,97,51,52.57731959,2905,primary,government,Kikatiti,804,34,,0,116,63,1.73302524,36.9460222541,-3.4067197397,"(-3.4067197397, 36.9460222541)"
PS0105-015,Kikwe Primary School,Meru,Arusha,45.16129032,6689,33,4,12.12121212,8654,primary,government,Kikwe,607,12,,0,31,14,33.0400782,36.8292042541,-3.4264511647,"(-3.4264511647, 36.8292042541)"
PS0105-016,Kilimani Primary School,Meru,Arusha,63,4586,114,79,69.29824561,1333,primary,government,Usa River,1155,40,,0,100,63,-6.298245614,,,
PS0105-017,Kilinga Primary School,Meru,Arusha,57.89473684,6290,59,9,15.25423729,8292,primary,government,Songoro,543,11,,0,57,33,42.64049955,36.8362900132,-3.3180439578,"(-3.3180439578, 36.8362900132)"
PS0105-018,Kimosonu Primary School,Meru,Arusha,25,11982,34,23,67.64705882,1731,primary,government,Ngarenanyuki,6543,7,,0,28,7,-42.64705882,,,
PS0105-019,Kimundo Primary School,Meru,Arusha,58.33333333,5957,40,10,25,6353,primary,government,Nkoarisambu,257,21,,0,36,21,33.33333333,36.7831945261,-3.352884508,"(-3.352884508, 36.7831945261)"
PS0105-020,King'ori Primary School,Meru,Arusha,58,4954,57,37,64.9122807,2020,primary,,,,,,,50,29,-6.912280702,36.9796578552,-3.2988642039,"(-3.2988642039, 36.9796578552)"
PS0105-021,Kitefu Primary School,Meru,Arusha,60.78431373,5417,90,1,1.111111111,13035,primary,government,Maji Ya Chai,867,24,,0,102,62,59.67320261,36.902321031,-3.3963275956,"(-3.3963275956, 36.902321031)"
PS0105-022,Kisimiri Chini Primary School,Meru,Arusha,33.89830508,11138,64,17,26.5625,9408,primary,government,Ngarenanyuki,654,12,,0,59,20,7.335805085,,,
PS0105-023,Kisimiri Juu Primary School,Meru,Arusha,71.05263158,3381,38,1,2.631578947,12703,primary,government,Ngarenanyuki,760,7,,0,38,27,68.42105263,,,
PS0105-024,Kolila Primary School,Meru,Arusha,84.61538462,773,32,1,3.125,10729,primary,government,Kingori,601,11,,0,39,33,81.49038462,37.0408380494,-3.3412480405,"(-3.3412480405, 37.0408380494)"
PS0105-025,Kwatulele Primary School,Meru,Arusha,30.6122449,11035,45,17,37.77777778,5537,primary,government,Kingori,648,12,,0,49,15,-7.16553288,36.9792242418,-3.277408109,"(-3.277408109, 36.9792242418)"
PS0105-026,Kwaugoro Primary School,Meru,Arusha,75.6097561,5354,49,26,53.06122449,3177,primary,government,Maroroni,612,7,,0,41,31,22.54853161,36.8783116464,-3.4688905754,"(-3.4688905754, 36.8783116464)"
PS0105-027,Leganga Primary School,Meru,Arusha,55.85585586,5634,140,51,36.42857143,4613,primary,government,Usa River,1200,50,,0,111,62,19.42728443,,,
PS0105-028,Leguruki Primary School,Meru,Arusha,84.21052632,2896,45,4,8.888888889,12231,primary,government,Leguruki,890,12,1,0,38,32,75.32163743,36.9481862884,-3.2566494021,"(-3.2566494021, 36.9481862884)"
PS0105-029,Lerai Primary School,Meru,Arusha,94.44444444,837,31,14,45.16129032,3690,primary,government,Maji Ya Chai,590,15,,0,36,34,49.28315412,36.9158532876,-3.3448412878,"(-3.3448412878, 36.9158532876)"
PS0105-030,Lositeti Primary School,Meru,Arusha,41.93548387,7002,38,37,97.36842105,323,primary,,,,,,,31,13,-55.43293718,36.9533322225,-3.4762713469,"(-3.4762713469, 36.9533322225)"
PS0105-031,Majengo Primary School,Meru,Arusha,58.82352941,6926,44,5,11.36363636,9150,primary,government,Makiba,690,8,,0,51,30,47.45989305,,,
PS0105-032,Maji Ya Chai Primary School,Meru,Arusha,69.64285714,4269,61,59,96.72131148,397,primary,government,Maji Ya Chai,609,20,,0,56,39,-27.07845433,36.9175364394,-3.3656754012,"(-3.3656754012, 36.9175364394)"
PS0105-033,Makiba Primary School,Meru,Arusha,54.36893204,7317,96,15,15.625,8953,primary,government,Makiba,781,15,,0,103,56,38.74393204,,,
PS0105-034,Makumira Primary School,Meru,Arusha,50.64935065,6158,58,13,22.4137931,5847,primary,government,Poli,540,30,,0,77,39,28.23555755,36.8270872357,-3.3592574216,"(-3.3592574216, 36.8270872357)"
PS0105-035,Malula Primary School,Meru,Arusha,97.33333333,304,89,46,51.68539326,2198,primary,government,Kingori,576,20,,0,75,73,45.64794007,,,
PS0105-036,Manyata Primary School,Meru,Arusha,73.68421053,3573,17,17,100,97,primary,government,Usa River,792,15,,0,19,14,-26.31578947,36.8473038721,-3.4228668882,"(-3.4228668882, 36.8473038721)"
PS0105-037,Maroroni Primary School,Meru,Arusha,54.90196078,6659,68,3,4.411764706,11821,primary,government,Maroroni,446,15,,0,51,28,50.49019608,36.9103893153,-3.4386297848,"(-3.4386297848, 36.9103893153)"
PS0105-038,Maruango Primary School,Meru,Arusha,77.92207792,2717,77,75,97.4025974,831,primary,government,Leguruki,800,10,,0,77,60,-19.48051948,36.9897613958,-3.2532344833,"(-3.2532344833, 36.9897613958)"
PS0105-039,Maweni Primary School,Meru,Arusha,85.71428571,4071,25,3,12,6668,primary,government,Kikwe,400,9,,0,14,12,73.71428571,36.8540729574,-3.4573721727,"(-3.4573721727, 36.8540729574)"
PS0105-040,Mareu Primary School,Meru,Arusha,41.93548387,10559,38,25,65.78947368,2230,primary,government,Kingori,409,8,,0,31,13,-23.85398981,36.9741206988,-3.3188795007,"(-3.3188795007, 36.9741206988)"
PS0105-041,Mavinuni Primary School,Meru,Arusha,83.33333333,3293,77,41,53.24675325,2006,primary,government,Akeri,643,29,,0,54,45,30.08658009,36.7757562556,-3.3604703636,"(-3.3604703636, 36.7757562556)"
PS0105-042,Mbuguni Primary School,Meru,Arusha,65.07936508,3977,116,4,3.448275862,12777,primary,government,Mbuguni,454,,,0,63,41,61.63108922,,,
PS0105-043,Meru Paek Primary School,Meru,Arusha,50,5766,8,3,37.5,,primary,,,,,,,10,5,12.5,36.8824550795,-3.3347251425,"(-3.3347251425, 36.8824550795)"
PS0105-044,Mfulonyi Primary School,Meru,Arusha,92.42424242,1271,72,16,22.22222222,,primary,government,Nkoarisambu,543,15,,0,66,61,70.2020202,,,
PS0105-045,Migandini Primary School,Meru,Arusha,4.444444444,14896,53,44,83.01886792,1063,primary,government,Maroroni,540,9,,0,45,2,-78.57442348,36.889881314,-3.444668988,"(-3.444668988, 36.889881314)"
PS0105-046,Mikungani Primary School,Meru,Arusha,18.07228916,12128,56,8,14.28571429,9126,primary,government,Mbuguni,525,10,,0,83,15,3.786574871,36.9544651298,-3.567345901,"(-3.567345901, 36.9544651298)"
PS0105-047,Mikuuni Primary School,Meru,Arusha,78.78787879,1073,35,19,54.28571429,2303,primary,government,Kingori,490,8,,0,33,26,24.5021645,37.0015100234,-3.3476603044,"(-3.3476603044, 37.0015100234)"
PS0105-048,Miririni Primary School,Meru,Arusha,65.30612245,5968,45,35,77.77777778,2174,primary,government,Leguruki,610,9,1,0,49,32,-12.47165533,36.9236699425,-3.2277398599,"(-3.2277398599, 36.9236699425)"
PS0105-049,Moivaro Primary School,Meru,Arusha,56.19834711,6429,144,33,22.91666667,6759,primary,government,Nkoanrua,400,42,,0,121,68,33.28168044,,,
PS0105-050,Mowara Primary School,Meru,Arusha,5,13539,53,6,11.32075472,8748,primary,government,Leguruki,708,8,,0,40,2,-6.320754717,36.9860513574,-3.2369976843,"(-3.2369976843, 36.9860513574)"
PS0105-051,Msitu Wa Mbogo Primary School,Meru,Arusha,55.88235294,6951,35,26,74.28571429,2120,primary,,,,,,,34,19,-18.40336134,36.8851036582,-3.5294160133,"(-3.5294160133, 36.8851036582)"
PS0105-052,Mukidoma Primary School,Meru,Arusha,100,471,35,33,94.28571429,472,primary,,,,,,,30,30,5.714285714,,,
PS0105-053,Mulala Primary School,Meru,Arusha,90.32258065,2311,60,52,86.66666667,792,primary,government,Songoro,569,16,,0,62,56,3.655913979,,,
PS0105-054,Mwakeny Primary School,Meru,Arusha,22.85714286,12290,21,20,95.23809524,909,primary,government,Ngarenanyuki,567,10,,0,70,16,-72.38095238,36.8047416972,-3.1943469956,"(-3.1943469956, 36.8047416972)"
PS0105-055,Nambala Primary School,Meru,Arusha,93.10344828,1982,39,25,64.1025641,1775,primary,government,Kikwe,569,24,,0,58,54,29.00088417,,,
PS0105-056,Nasula Primary School,Meru,Arusha,37.5,8258,33,20,60.60606061,772,primary,government,Ngarenanyuki,600,10,,0,32,12,-23.10606061,36.030132661,-3.363646689,"(-3.363646689, 36.030132661)"
PS0105-057,Nkoanrua Primary School,Meru,Arusha,68.42105263,5752,67,13,19.40298507,7305,primary,government,Nkoanrua,477,22,,0,57,39,49.01806756,36.7672731078,-3.3527939376,"(-3.3527939376, 36.7672731078)"
PS0105-058,Ndoombo Primary School,Meru,Arusha,51.19047619,6421,67,13,19.40298507,7574,primary,government,Nkoarisambu,472,13,,0,84,43,31.78749112,36.7752802273,-3.3282138965,"(-3.3282138965, 36.7752802273)"
PS0105-059,Ngabobo Primary School,Meru,Arusha,18.18181818,12203,21,4,19.04761905,7182,primary,government,Ngarenanyuki,487,10,,0,22,4,-0.865800866,36.894852487,-3.1108354378,"(-3.1108354378, 36.894852487)"
PS0105-060,Ngarenanyuki Primary School,Meru,Arusha,33.87096774,10221,51,9,17.64705882,8397,primary,government,Ngarenanyuki,751,7,,0,62,21,16.22390892,36.8789492768,-3.1432691096,"(-3.1432691096, 36.8789492768)"
PS0105-061,Ngyani Primary School,Meru,Arusha,63.15789474,6324,70,11,15.71428571,7166,primary,government,Nkoaranga,658,20,,0,57,36,47.44360902,36.8266107701,-3.3387163534,"(-3.3387163534, 36.8266107701)"
PS0105-062,Ngyeku Primary School,Meru,Arusha,57.35294118,7109,101,19,18.81188119,8143,primary,government,Kikatiti,457,22,,0,68,39,38.54105999,,,
PS0105-063,Nkoamangasha Primary School,Meru,Arusha,57.5,5996,40,3,7.5,9099,primary,government,Kikatiti,510,16,,0,40,23,50,,,
PS0105-064,Nkoakirika Primary School,Meru,Arusha,100,1020,48,17,35.41666667,5454,primary,government,Poli,561,11,,0,33,33,64.58333333,36.8003903264,-3.3422829769,"(-3.3422829769, 36.8003903264)"
PS0105-065,Nkoansiyo Primary School,Meru,Arusha,94.44444444,2194,51,3,5.882352941,10027,primary,government,Kingori,417,9,,0,36,34,88.5620915,37.0175601404,-3.2613819466,"(-3.2613819466, 37.0175601404)"
PS0105-066,Nkoaranga Primary School,Meru,Arusha,87.71929825,3301,95,42,44.21052632,3366,primary,government,Nkoaranga,700,18,,0,57,50,43.50877193,36.8079604078,-3.3359717029,"(-3.3359717029, 36.8079604078)"
PS0105-067,Nkoanekole Primary School,Meru,Arusha,100,446,40,36,90,,primary,,,,,,,39,39,10,36.8563700364,-3.337778443,"(-3.337778443, 36.8563700364)"
PS0105-068,Ngongongare Primary School,Meru,Arusha,82.55813953,2653,65,26,40,4077,primary,government,Maji Ya Chai,865,24,,0,86,71,42.55813953,36.8824268264,-3.3184515902,"(-3.3184515902, 36.8824268264)"
PS0105-069,Ngurudoto Primary School,Meru,Arusha,40,9335,117,21,17.94871795,,primary,government,Maji Ya Chai,753,21,,0,75,30,22.05128205,36.9133035891,-3.3295927123,"(-3.3295927123, 36.9133035891)"
PS0105-070,Ntuwe Primary School,Meru,Arusha,59.45945946,3727,34,20,58.82352941,1970,primary,government,Kingori,589,10,,0,37,22,0.635930048,37.0199182522,-3.2973722255,"(-3.2973722255, 37.0199182522)"
PS0105-071,Nshupu Primary School,Meru,Arusha,47.12643678,8180,86,16,18.60465116,6594,primary,government,Nkoaranga,765,24,,0,87,41,28.52178562,36.8350458622,-3.3522325753,"(-3.3522325753, 36.8350458622)"
PS0105-072,Nkoasenga Primary School,Meru,Arusha,68.11594203,4534,70,18,25.71428571,5100,primary,government,Leguruki,740,9,,0,69,47,42.40165631,36.9122198657,-3.2538177304,"(-3.2538177304, 36.9122198657)"
PS0105-073,Oldeves Primary School,Meru,Arusha,39.74358974,10151,87,6,6.896551724,12370,primary,government,Mbuguni,832,13,,0,78,31,32.84703802,,,
PS0105-074,Olkung'wado Primary School,Meru,Arusha,86.95652174,1286,50,36,72,1218,primary,,,,,,,46,40,14.95652174,,,
PS0105-075,Patandi Primary School,Meru,Arusha,72.64150943,3376,86,41,47.6744186,3404,primary,government,Akeri,687,43,,0,106,77,24.96709083,36.787577229,-3.3719694046,"(-3.3719694046, 36.787577229)"
PS0105-076,Patanumbe Primary School,Meru,Arusha,38.75,9796,70,8,11.42857143,11270,primary,government,Makiba,739,10,,0,80,31,27.32142857,36.9469419223,-3.5186153018,"(-3.5186153018, 36.9469419223)"
PS0105-077,Poli Primary School,Meru,Arusha,40,9856,76,11,14.47368421,8980,primary,,,,,,,60,24,25.52631579,36.8049252035,-3.3578877929,"(-3.3578877929, 36.8049252035)"
PS0105-078,Samaria Primary School,Meru,Arusha,44.82758621,8743,37,25,67.56756757,1282,primary,government,Maroroni,670,13,,0,29,13,-22.73998136,36.972207495,-3.4345865403,"(-3.4345865403, 36.972207495)"
PS0105-079,Sakila Primary School,Meru,Arusha,56.41025641,5431,64,27,42.1875,3520,primary,government,Kikatiti,567,14,,0,39,22,14.22275641,,,
PS0105-080,Sangananu Primary School,Meru,Arusha,93.10344828,3251,21,8,38.0952381,3568,primary,government,Nkoaranga,645,16,,0,29,27,55.00821018,36.8524572146,-3.3459335781,"(-3.3459335781, 36.8524572146)"
PS0105-081,Seela Primary School,Meru,Arusha,26.41509434,11570,49,23,46.93877551,4169,primary,government,Kingori,728,20,,0,106,28,-20.52368117,36.7872513423,-3.3328424311,"(-3.3328424311, 36.7872513423)"
PS0105-082,Sinai Primary School,Meru,Arusha,66.66666667,4139,23,6,26.08695652,7575,primary,government,Leguruki,706,6,,0,15,10,40.57971015,36.9081994249,-3.1963809703,"(-3.1963809703, 36.9081994249)"
PS0105-083,Sing'isi Primary School,Meru,Arusha,50.89285714,7041,120,23,19.16666667,7864,primary,,,,,,,112,57,31.72619048,36.7931060992,-3.3654820378,"(-3.3654820378, 36.7931060992)"
PS0105-084,Shishitony Primary School,Meru,Arusha,34.7826087,9290,36,5,13.88888889,8870,primary,,,,,,,23,8,20.89371981,36.9492745787,-3.2344102108,"(-3.2344102108, 36.9492745787)"
PS0105-085,Songoro Primary School,Meru,Arusha,54.6875,5718,58,15,25.86206897,5995,primary,government,Songoro,659,12,,0,64,35,28.82543103,36.8161212355,-3.3186865307,"(-3.3186865307, 36.8161212355)"
PS0105-086,Sura Primary School,Meru,Arusha,62.5,6164,46,2,4.347826087,12133,primary,government,Songoro,564,9,,0,40,25,58.15217391,36.7987153504,-3.3269287299,"(-3.3269287299, 36.7987153504)"
PS0105-087,Surumala Primary School,Meru,Arusha,58.97435897,6102,32,17,53.125,3181,primary,,,,,,,39,23,5.849358974,36.9393167411,-3.3698174913,"(-3.3698174913, 36.9393167411)"
PS0105-088,Tanzania Adventist Primary School,Meru,Arusha,100,796,38,32,84.21052632,692,primary,non-government,Maji Ya Chai,278,14,,0,34,34,15.78947368,36.8825208304,-3.3249973531,"(-3.3249973531, 36.8825208304)"
PS0105-089,Tengeru Primary School,Meru,Arusha,80,2453,26,18,69.23076923,1145,primary,government,Akeri,578,24,,0,40,32,10.76923077,36.8027831339,-3.3824636667,"(-3.3824636667, 36.8027831339)"
PS0105-090,Tuvaila Primary School,Meru,Arusha,98.97959184,814,126,30,23.80952381,6543,primary,government,Maji Ya Chai,1090,34,,0,98,97,75.17006803,36.9013967885,-3.3659118942,"(-3.3659118942, 36.9013967885)"
PS0105-091,Ulong'a Primary School,Meru,Arusha,54.66666667,6800,93,19,20.43010753,7544,primary,,,,,,,75,41,34.23655914,36.7587328859,-3.3386175744,"(-3.3386175744, 36.7587328859)"
PS0105-092,Upendo Primary School,Meru,Arusha,100,406,74,43,58.10810811,1251,primary,government,Kingori,629,13,,0,68,68,41.89189189,37.0084575315,-3.2835880346,"(-3.2835880346, 37.0084575315)"
PS0105-093,Uraki Primary School,Meru,Arusha,58.18181818,5437,127,42,33.07086614,4968,primary,government,Poli,699,33,,0,110,64,25.11095204,,,
PS0105-094,Urisho Primary School,Meru,Arusha,77.41935484,4180,60,35,58.33333333,1925,primary,government,Songoro,549,13,,0,62,48,19.08602151,36.811503103,-3.3244079001,"(-3.3244079001, 36.811503103)"
PS0105-095,Usa Primary School,Meru,Arusha,80.18018018,2732,102,59,57.84313725,2295,primary,government,Usa River,903,38,,0,111,89,22.33704293,36.8562544828,-3.3660754891,"(-3.3660754891, 36.8562544828)"
PS0105-096,Usa River Academy Primary School,Meru,Arusha,100,454,11,11,100,402,primary,,,,,,,11,11,0,,,
PS0105-097,Valeska Primary School,Meru,Arusha,60,6027,62,9,14.51612903,10325,primary,government,Makiba,555,8,,0,85,51,45.48387097,36.9196550406,-3.5171261396,"(-3.5171261396, 36.9196550406)"
PS0105-099,Nazareti Primary School,Meru,Arusha,24.13793103,12337,36,1,2.777777778,13901,primary,government,Maroroni,535,7,,0,29,7,21.36015326,36.9137617834,-3.4640062052,"(-3.4640062052, 36.9137617834)"
PS0105-100,Engejisosia Primary School,Meru,Arusha,90.32258065,2578,24,24,100,468,primary,government,Kingori,541,8,,0,31,28,-9.677419355,,,
PS0105-101,Lendoiya Primary School,Meru,Arusha,3.448275862,12722,20,5,25,7248,primary,government,Ngarenanyuki,470,8,1,0,29,1,-21.55172414,36.89122433,-3.1974943008,"(-3.1974943008, 36.89122433)"
PS0105-102,Mborenyi Primary School,Meru,Arusha,100,1042,22,22,100,,primary,,,,,,,22,22,0,,,
PS0105-103,Miembeni Primary School,Meru,Arusha,19.67213115,11886,75,0,0,13494,primary,government,Mbuguni,327,11,,0,61,12,19.67213115,36.9321678884,-3.559059456,"(-3.559059456, 36.9321678884)"
PS0105-104,Nganana Primary School,Meru,Arusha,94.73684211,1280,56,39,69.64285714,2114,primary,government,Kikwe,503,14,,0,38,36,25.09398496,36.7964692011,-3.4097871755,"(-3.4097871755, 36.7964692011)"
PS0105-105,Noseiya Primary School,Meru,Arusha,13.68421053,12796,72,9,12.5,9788,primary,government,Leguruki,640,9,,0,95,13,1.184210526,36.9257494722,-3.2446148017,"(-3.2446148017, 36.9257494722)"
PS0105-106,Mrumangeni Primary School,Meru,Arusha,90.90909091,1773,45,19,42.22222222,,primary,,,,,,,44,40,48.68686869,37.0341599922,-3.3650504255,"(-3.3650504255, 37.0341599922)"
PS0105-108,Ushili Primary School,Meru,Arusha,37.5,9517,26,11,42.30769231,4537,primary,government,Songoro,543,8,,0,32,12,-4.807692308,36.7966757452,-3.3258935622,"(-3.3258935622, 36.7966757452)"
PS0105-109,Devis Preparatory Primary School,Meru,Arusha,100,125,6,6,100,,primary,,,,,,,19,19,0,,,
PS0105-110,Kiwawa Primary School,Meru,Arusha,52.94117647,7603,47,25,53.19148936,3103,primary,government,Maji Ya Chai,765,16,,0,34,18,-0.250312891,,,
PS0105-111,Kaloleni Primary School,Meru,Arusha,11.11111111,13588,33,3,9.090909091,12834,primary,government,Makiba,531,8,,0,36,4,2.02020202,37.0423467189,-3.4630610231,"(-3.4630610231, 37.0423467189)"
PS0105-112,Haradali Primary School,Meru,Arusha,100,342,40,39,97.5,181,primary,,,,,,,48,48,2.5,36.7654780709,-3.3668562549,"(-3.3668562549, 36.7654780709)"
PS0105-113,Maua Primary School,Meru,Arusha,100,191,44,44,100,231,primary,non-government,Nkoaranga,244,15,,0,34,34,0,,,
PS0105-114,Nuru Primary School,Meru,Arusha,36.11111111,9847,23,4,17.39130435,6970,primary,government,Kingori,490,5,,0,36,13,18.71980676,36.9903728472,-3.2895100095,"(-3.2895100095, 36.9903728472)"
PS0105-115,Sylus Andarson Primary School,Meru,Arusha,95.71428571,1249,66,66,100,,primary,,,,,,,70,67,-4.285714286,,,
PS0105-116,Mukuru Primary School,Meru,Arusha,10,13080,20,7,35,4153,primary,government,Ngarenanyuki,543,5,,0,20,2,-25,,,
PS0105-117,Savana Primary School,Meru,Arusha,26.31578947,12321,44,22,50,2911,primary,government,Maroroni,560,13,,0,38,10,-23.68421053,,,
PS0105-118,Upendo Academy Primary School,Meru,Arusha,95.83333333,833,18,17,94.44444444,582,primary,,,,,,,24,23,1.388888889,,,
PS0105-119,Elizabeth Centre Primary School,Meru,Arusha,100,800,20,19,95,666,primary,non-government,Kingori,327,17,,0,20,20,5,37.0591984445,-3.369603585,"(-3.369603585, 37.0591984445)"
PS0105-120,Kirenga Primary School,Meru,Arusha,97.14285714,1672,43,19,44.18604651,4776,primary,government,Kingori,530,8,,0,35,34,52.95681063,,,
PS0105-121,Mbaaseny Primary School,Meru,Arusha,97.82608696,866,41,33,80.48780488,1035,primary,,,,,,,46,45,17.33828208,,,
PS0105-122,Linde Primary School,Meru,Arusha,100,359,8,7,87.5,646,primary,,,,,,,6,6,12.5,,,
PS0105-123,Kimandafu Primary School,Meru,Arusha,91.66666667,2331,,,,,primary,government,Maji Ya Chai,1265,19,,0,36,33,,36.9260678983,-3.3896976998,"(-3.3896976998, 36.9260678983)"
PS0105-124,Tengeru English Medium Primary School,Meru,Arusha,100,6,,,,,primary,non-government,Akeri,290,11,1,0,24,24,,,,
PS0105-125,Ngorika Happy Watoto Primary School,Meru,Arusha,100,326,,,,,primary,,,,,,,25,25,,,,
PS0105-126,Young Roses Primary School,Meru,Arusha,100,599,,,,,primary,non-government,Usa River,151,9,,0,14,14,,,,
PS0105-127,Tanzanite Primary School,Meru,Arusha,100,610,,,,,primary,government,Mbuguni,525,19,,0,41,41,,,,
PS0106-001,Arkatani Primary School,Monduli,Arusha,23.4375,12789,45,15,33.33333333,5442,primary,,,,,,,64,15,-9.895833333,36.3924506478,-3.4190041675,"(-3.4190041675, 36.3924506478)"
PS0106-002,Engaruka Chini Primary School,Monduli,Arusha,42.85714286,9664,36,4,11.11111111,9811,primary,government,Engaruka,415,10,,,28,12,31.74603175,36.0047785173,-3.0009547063,"(-3.0009547063, 36.0047785173)"
PS0106-003,Engaruka Juu Primary School,Monduli,Arusha,26.31578947,11170,99,18,18.18181818,8647,primary,government,Engaruka,871,15,2,2,133,35,8.133971292,35.9335377437,-3.0209691436,"(-3.0209691436, 35.9335377437)"
PS0106-004,Enguiki Primary School,Monduli,Arusha,68.75,4686,74,18,24.32432432,5941,primary,government,Monduli Juu,737,16,,,64,44,44.42567568,36.4272422963,-3.2368042478,"(-3.2368042478, 36.4272422963)"
PS0106-005,Esilalei Primary School,Monduli,Arusha,69.04761905,5713,48,13,27.08333333,6639,primary,government,Esilalei,273,9,,,42,29,41.96428571,35.9241366642,-3.4698453756,"(-3.4698453756, 35.9241366642)"
PS0106-006,Kigongono Primary School,Monduli,Arusha,51.02040816,7334,113,29,25.66371681,,primary,,,,,,,98,50,25.35669135,35.8618572311,-3.4046202856,"(-3.4046202856, 35.8618572311)"
PS0106-007,Lashaine Primary School,Monduli,Arusha,40.38461538,8721,64,8,12.5,9592,primary,government,Sepeko,338,19,,,52,21,27.88461538,36.4399347901,-3.3302711843,"(-3.3302711843, 36.4399347901)"
PS0106-008,Lendikinya Primary School,Monduli,Arusha,75,3642,58,14,24.13793103,7487,primary,government,Sepeko,538,14,,,44,33,50.86206897,36.3546799569,-3.3457249221,"(-3.3457249221, 36.3546799569)"
PS0106-009,Lepurko Primary School,Monduli,Arusha,30.18867925,10381,52,5,9.615384615,11231,primary,government,Lepurko,334,10,,,53,16,20.57329463,36.2264529173,-3.3560954909,"(-3.3560954909, 36.2264529173)"
PS0106-010,Lolkisale Primary School,Monduli,Arusha,27.94117647,11318,74,6,8.108108108,9739,primary,government,Lolkisale,584,14,,,68,19,19.83306836,36.421251,-3.767137,"(-3.767137, 36.421251)"
PS0106-011,Losimingori Primary School,Monduli,Arusha,44.18604651,9186,57,7,12.28070175,8895,primary,government,Lepurko,403,9,,,43,19,31.90534476,,,
PS0106-012,Majengo Primary School,Monduli,Arusha,28.40909091,10611,118,9,7.627118644,11262,primary,government,Majengo,709,19,,,88,25,20.78197227,35.836390746,-3.372447687,"(-3.372447687, 35.836390746)"
PS0106-013,Makuyuni Primary School,Monduli,Arusha,30.58823529,11577,106,7,6.603773585,11987,primary,government,Makuyuni,832,17,,,85,26,23.98446171,36.1007442598,-3.5560804618,"(-3.5560804618, 36.1007442598)"
PS0106-014,Manyara Primary School,Monduli,Arusha,80.99173554,3203,136,82,60.29411765,1743,primary,,,,,,,121,98,20.69761789,36.0587015981,-3.5316425892,"(-3.5316425892, 36.0587015981)"
PS0106-015,Mazoezi Primary School,Monduli,Arusha,61.05263158,4789,104,43,41.34615385,3442,primary,government,Monduli Mjini,649,33,,,95,58,19.70647773,36.4526966107,-3.3018073611,"(-3.3018073611, 36.4526966107)"
PS0106-016,Mbuyuni Primary School,Monduli,Arusha,47.36842105,8256,71,24,33.8028169,4853,primary,government,Makuyuni,803,17,,,95,45,13.56560415,36.204045416,-3.4775324695,"(-3.4775324695, 36.204045416)"
PS0106-017,Meserani Chini Primary School,Monduli,Arusha,24,11497,29,6,20.68965517,10014,primary,government,Meserani,295,8,,,25,6,3.310344828,36.4561577001,-3.5244873767,"(-3.5244873767, 36.4561577001)"
PS0106-018,Meserani Juu Primary School,Monduli,Arusha,51.72413793,7475,128,41,32.03125,5035,primary,government,Meserani,893,17,,,87,45,19.69288793,36.4802857853,-3.4384369323,"(-3.4384369323, 36.4802857853)"
PS0106-019,Mfereji Primary School,Monduli,Arusha,26.19047619,13687,42,4,9.523809524,14698,primary,government,Monduli Juu,446,11,,,42,11,16.66666667,36.4829666638,-3.1368093889,"(-3.1368093889, 36.4829666638)"
PS0106-020,Mlimani Primary School,Monduli,Arusha,54.09836066,6662,54,19,35.18518519,4247,primary,government,Engutoto,358,22,,,61,33,18.91317547,36.4588366583,-3.2848495629,"(-3.2848495629, 36.4588366583)"
PS0106-021,Moita Bwawani Primary School,Monduli,Arusha,37.28813559,10028,44,13,29.54545455,5665,primary,government,Moita,491,10,,,59,22,7.742681048,,,
PS0106-022,Moita Kiloriti Primary School,Monduli,Arusha,46.66666667,6695,63,6,9.523809524,10099,primary,government,Moita,400,10,,,45,21,37.14285714,,,
PS0106-023,Monduli Juu Primary School,Monduli,Arusha,42.66666667,8057,73,15,20.54794521,7773,primary,government,Monduli Juu,589,14,,,75,32,22.11872146,36.3943207896,-3.2518127227,"(-3.2518127227, 36.3943207896)"
PS0106-024,Mswakini Primary School,Monduli,Arusha,40.81632653,8475,61,4,6.557377049,12933,primary,government,Mswakini,375,9,,,49,20,34.25894948,36.0150415357,-3.6441112248,"(-3.6441112248, 36.0150415357)"
PS0106-025,Mtimmoja Primary School,Monduli,Arusha,25,10116,32,2,6.25,11247,primary,,,,,,,24,6,18.75,36.3054153727,-3.4063550341,"(-3.4063550341, 36.3054153727)"
PS0106-026,Mto Wa Mbu Primary School,Monduli,Arusha,76.22377622,3510,166,39,23.4939759,6184,primary,government,Majengo,1210,28,,,143,109,52.72980032,35.8214829314,-3.3968790236,"(-3.3968790236, 35.8214829314)"
PS0106-027,Naiti Primary School,Monduli,Arusha,17.0212766,12227,128,10,7.8125,12434,primary,government,Makuyuni,671,11,,,94,16,9.208776596,36.1758044492,-3.5092366606,"(-3.5092366606, 36.1758044492)"
PS0106-028,Naitolia Primary School,Monduli,Arusha,27.02702703,11900,81,15,18.51851852,9835,primary,government,Mswakini,353,9,,,74,20,8.508508509,36.0897058111,-3.6031646703,"(-3.6031646703, 36.0897058111)"
PS0106-029,Ndukusi Primary School,Monduli,Arusha,32.14285714,10518,45,3,6.666666667,12801,primary,government,Lolkisale,278,8,,,56,18,25.47619048,,,
PS0106-030,Ngarashi Primary School,Monduli,Arusha,94.82758621,1576,91,37,40.65934066,4256,primary,,,,,,,58,55,54.16824555,36.4341679108,-3.2998163491,"(-3.2998163491, 36.4341679108)"
PS0106-031,Selela Primary School,Monduli,Arusha,35.71428571,10734,47,7,14.89361702,10724,primary,government,Selela,784,19,,,70,25,20.82066869,35.9161026928,-3.2288146834,"(-3.2288146834, 35.9161026928)"
PS0106-032,Arkaria Primary School,Monduli,Arusha,35.71428571,9745,16,0,0,14253,primary,government,Sepeko,172,6,,,14,5,35.71428571,36.3028718618,-3.3274008452,"(-3.3274008452, 36.3028718618)"
PS0106-033,Naalarami Primary School,Monduli,Arusha,21.73913043,13180,28,2,7.142857143,14302,primary,government,Meserani,273,8,,,23,5,14.59627329,36.5149088527,-3.6196950715,"(-3.6196950715, 36.5149088527)"
PS0106-034,Orkeeswa Primary School,Monduli,Arusha,46.2962963,8433,56,7,12.5,9206,primary,government,Sepeko,390,12,,,54,25,33.7962963,36.4007381977,-3.3120475704,"(-3.3120475704, 36.4007381977)"
PS0106-035,Oltukai Primary School,Monduli,Arusha,0,15112,35,4,11.42857143,12927,primary,government,Esilalei,273,6,,,23,0,-11.42857143,35.8916004895,-3.6572646607,"(-3.6572646607, 35.8916004895)"
PS0106-036,Eluwai Primary School,Monduli,Arusha,22.22222222,13044,56,0,0,14665,primary,government,Monduli Juu,426,9,,,36,8,22.22222222,36.3644137889,-3.2206910968,"(-3.2206910968, 36.3644137889)"
PS0106-037,Olarash Primary School,Monduli,Arusha,30,9636,40,9,22.5,7850,primary,government,Engutoto,286,11,,,40,12,7.5,36.4754050525,-3.3118075897,"(-3.3118075897, 36.4754050525)"
PS0106-038,Kilimatinde Primary School,Monduli,Arusha,56,5653,39,13,33.33333333,6223,primary,government,Moita,336,8,,,25,14,22.66666667,36.593182506,-3.6381928699,"(-3.6381928699, 36.593182506)"
PS0106-039,Nafco Primary School,Monduli,Arusha,37.77777778,8206,47,15,31.91489362,5891,primary,government,Lolkisale,416,8,,,45,17,5.862884161,36.4068021679,-3.7211284332,"(-3.7211284332, 36.4068021679)"
PS0106-040,Khatamulanbiyaa Primary School,Monduli,Arusha,100,2747,14,7,50,3749,primary,,,,,,,13,13,50,,,
PS0106-041,Mswakini Juu Primary School,Monduli,Arusha,18.91891892,14177,61,3,4.918032787,13607,primary,government,Mswakini,324,10,,,74,14,14.00088613,36.0562905805,-3.6774331627,"(-3.6774331627, 36.0562905805)"
PS0106-042,Mbaash Primary School,Monduli,Arusha,17.07317073,14005,31,1,3.225806452,15235,primary,government,Selela,354,9,,,41,7,13.84736428,36.0586581562,-3.2078161017,"(-3.2078161017, 36.0586581562)"
PS0106-043,Baraka Primary School,Monduli,Arusha,34.09090909,11334,78,12,15.38461538,10852,primary,government,Esilalei,669,15,,,88,30,18.70629371,35.8763887585,-3.3842109634,"(-3.3842109634, 35.8763887585)"
PS0106-044,Migombani Primary School,Monduli,Arusha,43.33333333,9383,44,6,13.63636364,9377,primary,government,Majengo,212,7,,,30,13,29.6969697,,,
PS0106-045,Lemoot Primary School,Monduli,Arusha,23.80952381,11654,27,4,14.81481481,12062,primary,,,,,,,21,5,8.994708995,36.30917317,-3.7636791613,"(-3.7636791613, 36.30917317)"
PS0106-046,Jangwani Primary School,Monduli,Arusha,32,9508,99,7,7.070707071,11341,primary,government,Mto Wa Mbu,448,15,,,100,32,24.92929293,35.8311163381,-3.4105126762,"(-3.4105126762, 35.8311163381)"
PS0106-047,Eunoto Primary School,Monduli,Arusha,25,12766,48,0,0,14943,primary,government,Esilalei,264,8,,,32,8,25,35.8639772549,-3.339666868,"(-3.339666868, 35.8639772549)"
PS0106-048,Losikito Primary School,Monduli,Arusha,34.7826087,9882,27,7,25.92592593,6869,primary,government,Lolkisale,223,6,,,23,8,8.85668277,36.4866580103,-3.7711159451,"(-3.7711159451, 36.4866580103)"
PS0106-049,Sinoni Primary School,Monduli,Arusha,64.1025641,5898,43,12,27.90697674,4987,primary,government,Monduli Mjini,278,14,,,39,25,36.19558736,,,
PS0106-050,Irmorijo Primary School,Monduli,Arusha,11.9047619,12149,46,11,23.91304348,6055,primary,government,Monduli Juu,280,5,,,42,5,-12.00828157,36.3417539724,-3.2661527823,"(-3.2661527823, 36.3417539724)"
PS0106-051,Mwalimu Anna Academy Primary School,Monduli,Arusha,100,113,14,14,100,,primary,,,,,,,13,13,0,,,
PS0106-052,Lengolwa Primary School,Monduli,Arusha,21.42857143,12026,,,,,primary,government,Lolkisale,247,6,,,14,3,,36.398874603,-3.75531239,"(-3.75531239, 36.398874603)"
PS0106-053,Sokoine Primary School,Monduli,Arusha,86.20689655,1972,,,,,primary,government,Meserani,225,12,,,29,25,,,,
PS0107-001,Alailelai Primary School,Ngorongoro,Arusha,0,15643,48,2,4.166666667,14510,primary,government,Alailelai,714,9,2,0,50,0,-4.166666667,35.6711462207,-2.9818246326,"(-2.9818246326, 35.6711462207)"
PS0107-002,Arash Primary School,Ngorongoro,Arusha,25.3968254,12731,75,1,1.333333333,14389,primary,government,Arash,761,15,1,2,63,16,24.06349206,35.4775345674,-2.4007196559,"(-2.4007196559, 35.4775345674)"
PS0107-003,Bulati Primary School,Ngorongoro,Arusha,33.33333333,8946,49,2,4.081632653,14805,primary,government,Nainokanoka,528,11,,,33,11,29.25170068,35.7739476436,-3.0112977741,"(-3.0112977741, 35.7739476436)"
PS0107-004,Digodigo Primary School,Ngorongoro,Arusha,65.90909091,4736,60,17,28.33333333,5446,primary,government,Digodigo,639,11,3,,44,29,37.57575758,,,
PS0107-005,Endulen Primary School,Ngorongoro,Arusha,34.51327434,11264,141,20,14.18439716,10878,primary,government,Endulen,762,22,1,2,113,39,20.32887717,35.2402543222,-3.2437054273,"(-3.2437054273, 35.2402543222)"
PS0107-006,Enguserosambu Primary School,Ngorongoro,Arusha,17.5,14146,43,1,2.325581395,14226,primary,government,Enguserosambu,349,8,2,,40,7,15.1744186,35.6364191375,-2.0062283924,"(-2.0062283924, 35.6364191375)"
PS0107-007,Esere Primary School,Ngorongoro,Arusha,10.60606061,15292,74,0,0,15266,primary,government,Endulen,531,11,2,,66,7,10.60606061,,,
PS0107-008,Irkeepusi Primary School,Ngorongoro,Arusha,23.68421053,11833,93,14,15.05376344,14044,primary,,,,,,,38,9,8.630447085,35.6606292104,-3.1167018436,"(-3.1167018436, 35.6606292104)"
PS0107-009,Kakesio Primary School,Ngorongoro,Arusha,5.952380952,15641,73,13,17.80821918,11867,primary,government,Kakesio,334,9,2,,84,5,-11.85583823,34.9592811405,-3.4030557198,"(-3.4030557198, 34.9592811405)"
PS0107-010,Kisangiro Primary School,Ngorongoro,Arusha,61.53846154,6642,19,2,10.52631579,12919,primary,government,Digodigo,444,9,2,,26,16,51.01214575,35.7353733789,-2.1574471699,"(-2.1574471699, 35.7353733789)"
PS0107-011,Loliondo Primary School,Ngorongoro,Arusha,59.01639344,6073,85,18,21.17647059,9917,primary,government,Orgosorok,377,20,3,,61,36,37.83992285,35.5950320297,-2.0761742992,"(-2.0761742992, 35.5950320297)"
PS0107-012,Makao Mapya Primary School,Ngorongoro,Arusha,91.66666667,2404,16,12,75,1266,primary,government,Ngorongoro,71,11,2,,12,11,16.66666667,,,
PS0107-013,Malambo Primary School,Ngorongoro,Arusha,27.83505155,10724,141,24,17.0212766,10075,primary,government,Malambo,1138,18,1,2,97,27,10.81377495,35.5735785229,-2.5396419576,"(-2.5396419576, 35.5735785229)"
PS0107-014,Mokilal Primary School,Ngorongoro,Arusha,7.368421053,14957,67,7,10.44776119,12997,primary,government,Ngorongoro,578,15,4,,95,7,-3.079340141,,,
PS0107-015,Nainokanoka Primary School,Ngorongoro,Arusha,22.82608696,13874,80,32,40,6117,primary,government,Nainokanoka,525,15,1,2,92,21,-17.17391304,35.6618027794,-3.0538007604,"(-3.0538007604, 35.6618027794)"
PS0107-016,Naiyobi Primary School,Ngorongoro,Arusha,25.42372881,12666,56,17,30.35714286,5732,primary,government,Naiyobi,718,10,2,,59,15,-4.933414044,35.8170391871,-2.8695846298,"(-2.8695846298, 35.8170391871)"
PS0107-017,Olbalbal Primary School,Ngorongoro,Arusha,23.80952381,13511,38,4,10.52631579,12679,primary,government,Olbalbal,685,15,3,,42,10,13.28320802,,,
PS0107-018,Oldonyosambu Primary School,Ngorongoro,Arusha,30.23255814,9250,57,38,66.66666667,760,primary,government,Oldonyosambu,489,7,1,,43,13,-36.43410853,35.804907532,-2.2124040356,"(-2.2124040356, 35.804907532)"
PS0107-019,Oloipiri Primary School,Ngorongoro,Arusha,36.58536585,10129,44,7,15.90909091,9796,primary,government,Oloipiri,615,9,2,,41,15,20.67627494,35.4074954363,-2.0688436183,"(-2.0688436183, 35.4074954363)"
PS0107-020,Jema Primary School,Ngorongoro,Arusha,23.80952381,12616,42,14,33.33333333,5320,primary,government,Oldonyosambu,591,8,2,,42,10,-9.523809524,35.8547773642,-2.1608591887,"(-2.1608591887, 35.8547773642)"
PS0107-021,Ololosokwan Primary School,Ngorongoro,Arusha,41.50943396,7983,112,11,9.821428571,12364,primary,government,Ololosokwan,594,12,3,,53,22,31.68800539,35.3001023421,-1.8999972297,"(-1.8999972297, 35.3001023421)"
PS0107-022,Piyaya Primary School,Ngorongoro,Arusha,6.849315069,15362,43,3,6.976744186,12970,primary,government,Malambo,871,12,2,1,73,5,-0.127429118,35.4749530171,-2.6050124715,"(-2.6050124715, 35.4749530171)"
PS0107-023,Sakala Primary School,Ngorongoro,Arusha,43.93939394,7426,48,17,35.41666667,5488,primary,government,Orgosorok,259,13,2,,66,29,8.522727273,35.5766306397,-2.0847814353,"(-2.0847814353, 35.5766306397)"
PS0107-024,Sale Primary School,Ngorongoro,Arusha,55,1661,29,16,55.17241379,1290,primary,government,Sale,477,10,2,,20,11,-0.172413793,35.6607919889,-2.3230239391,"(-2.3230239391, 35.6607919889)"
PS0107-025,Samunge Primary School,Ngorongoro,Arusha,56,6738,38,27,71.05263158,1091,primary,government,Samunge,376,13,2,,50,28,-15.05263158,35.6826243252,-2.176221096,"(-2.176221096, 35.6826243252)"
PS0107-026,Soitsambu Primary School,Ngorongoro,Arusha,19.56521739,14543,47,4,8.510638298,13821,primary,government,Soitsambu,358,8,2,,46,9,11.05457909,35.3941175255,-1.9322650699,"(-1.9322650699, 35.3941175255)"
PS0107-027,Lorien Primary School,Ngorongoro,Arusha,6.25,15340,54,6,11.11111111,13301,primary,government,Lorien/magaiduru,388,7,4,,80,5,-4.861111111,35.603859954,-2.1182569736,"(-2.1182569736, 35.603859954)"
PS0107-028,Maalon Primary School,Ngorongoro,Arusha,22.44897959,13217,65,7,10.76923077,,primary,government,Maalon,331,7,2,,49,11,11.67974882,35.548952143,-2.2713622554,"(-2.2713622554, 35.548952143)"
PS0107-029,Losoito Primary School,Ngorongoro,Arusha,14.28571429,15036,64,0,0,15203,primary,,,,,,,28,4,14.28571429,35.4637000046,-2.2581609948,"(-2.2581609948, 35.4637000046)"
PS0107-030,Engaresero Primary School,Ngorongoro,Arusha,22.85714286,13277,62,1,1.612903226,14699,primary,,,,,,,35,8,21.24423963,35.8496948327,-2.6347200481,"(-2.6347200481, 35.8496948327)"
PS0107-031,Osinoni Primary School,Ngorongoro,Arusha,42,7131,56,14,25,7542,primary,government,Kakesio,621,10,,,50,21,17,35.0670086095,-3.387323101,"(-3.387323101, 35.0670086095)"
PS0107-032,Wasso Primary School,Ngorongoro,Arusha,30,10957,71,9,12.67605634,10679,primary,government,Lorien/magaiduru,440,17,3,,60,18,17.32394366,35.5360695822,-2.0783944048,"(-2.0783944048, 35.5360695822)"
PS0107-033,Yasimdito Primary School,Ngorongoro,Arusha,48.8372093,7088,44,17,38.63636364,5969,primary,government,Samunge,268,8,1,,43,21,10.20084567,35.6725869687,-2.2198249755,"(-2.2198249755, 35.6725869687)"
PS0107-034,Kapenjiro Primary School,Ngorongoro,Arusha,25.75757576,12615,63,13,20.63492063,9437,primary,government,Naiyobi,466,7,2,,66,17,5.122655123,35.8615007209,-2.9534772031,"(-2.9534772031, 35.8615007209)"
PS0107-035,Ng'arwa Primary School,Ngorongoro,Arusha,29.54545455,10634,49,19,38.7755102,4939,primary,government,Enguserosambu,292,10,2,,44,13,-9.230055659,35.6281342165,-2.0817135443,"(-2.0817135443, 35.6281342165)"
PS0107-036,Olpiro Primary School,Ngorongoro,Arusha,5.263157895,13930,26,2,7.692307692,13377,primary,government,Endulen,160,7,2,,19,1,-2.429149798,,,
PS0107-037,Mgongo Primary School,Ngorongoro,Arusha,34.48275862,10423,52,8,15.38461538,10019,primary,government,Samunge,287,6,1,,29,10,19.09814324,35.640741154,-2.1843024678,"(-2.1843024678, 35.640741154)"
PS0107-038,Monic Primary School,Ngorongoro,Arusha,93.75,529,34,6,17.64705882,12909,primary,,,,,,,32,30,76.10294118,35.8649038793,-2.5214691307,"(-2.5214691307, 35.8649038793)"
PS0107-039,Pinyinyi Primary School,Ngorongoro,Arusha,7.142857143,15328,75,9,12,13017,primary,government,Pinyinyi,574,8,1,,56,4,-4.857142857,35.9127644652,-2.3351014525,"(-2.3351014525, 35.9127644652)"
PS0107-040,Misigiyo Primary School,Ngorongoro,Arusha,9.756097561,14866,63,5,7.936507937,14695,primary,government,Ngorongoro,566,12,3,,41,4,1.819589625,,,
PS0107-041,Sendui Primary School,Ngorongoro,Arusha,0,15484,50,5,10,11840,primary,government,Alailelai,412,7,,,23,0,-10,35.7219828343,-2.9405191777,"(-2.9405191777, 35.7219828343)"
PS0107-042,Sukenya Primary School,Ngorongoro,Arusha,19.23076923,14139,37,21,56.75675676,1122,primary,government,Oloipiri,388,8,1,,52,10,-37.52598753,35.4837469896,-1.9829592576,"(-1.9829592576, 35.4837469896)"
PS0107-043,Oldonyowas Primary School,Ngorongoro,Arusha,17.94871795,14291,37,0,0,15106,primary,government,Lorien/magaiduru,311,6,1,,39,7,17.94871795,35.5390205147,-2.1959480452,"(-2.1959480452, 35.5390205147)"
PS0107-044,Ndian Primary School,Ngorongoro,Arusha,14.1025641,14872,71,9,12.67605634,13154,primary,,,,,,,78,11,1.426507765,35.2494267148,-3.2146668455,"(-3.2146668455, 35.2494267148)"
PS0107-045,Njoroi Primary School,Ngorongoro,Arusha,41.93548387,9415,45,4,8.888888889,13113,primary,government,Ololosokwan,325,7,2,,31,13,33.04659498,35.4132463814,-1.8826319455,"(-1.8826319455, 35.4132463814)"
PS0107-046,Ngoile Primary School,Ngorongoro,Arusha,10,14595,52,13,25,7143,primary,government,Olbalbal,429,9,3,,20,2,-15,35.4513224401,-3.067556031,"(-3.067556031, 35.4513224401)"
PS0107-047,Rera Primary School,Ngorongoro,Arusha,59.09090909,6363,37,5,13.51351351,9853,primary,government,Digodigo,420,7,2,,44,26,45.57739558,35.709729456,-2.1834018716,"(-2.1834018716, 35.709729456)"
PS0107-048,Oloirobi Primary School,Ngorongoro,Arusha,15.45454545,14055,107,3,2.803738318,14318,primary,government,Ngorongoro,631,15,3,,110,17,12.65080714,35.4300855013,-3.2335286432,"(-3.2335286432, 35.4300855013)"
PS0107-049,Loliondo Gcct Primary School,Ngorongoro,Arusha,100,695,28,28,100,164,primary,non-government,Orgosorok,327,13,,,34,34,0,,,
PS0107-050,Kirtalo Primary School,Ngorongoro,Arusha,5.714285714,15261,59,0,0,15268,primary,government,Soitsambu,461,7,2,,70,4,5.714285714,35.3337867835,-1.9876531276,"(-1.9876531276, 35.3337867835)"
PS0107-051,Masusu Primary School,Ngorongoro,Arusha,22.58064516,14189,20,7,35,5117,primary,government,Pinyinyi,282,6,,,31,7,-12.41935484,35.7792258481,-2.2924147282,"(-2.2924147282, 35.7792258481)"
PS0107-052,Mondoros Primary School,Ngorongoro,Arusha,72.97297297,5638,43,0,0,15080,primary,government,Soitsambu,286,5,3,,37,27,72.97297297,35.4621361738,-1.9233637632,"(-1.9233637632, 35.4621361738)"
